{"version": 0.6, "generator": "Overpass API 0.7.62.11 87bfad18", "osm3s": {"timestamp_osm_base": "2026-05-18T14:56:06Z", "copyright": "The data included in this document is from www.openstreetmap.org. The data is made available under ODbL."}, "elements": [{"type": "node", "id": 533855771, "lat": 53.4012352, "lon": -2.9621387, "tags": {"bus": "yes", "departures_board": "timetable", "highway": "bus_stop", "name": "GROVE STREET/MYRTLE STREET", "naptan:AtcoCode": "2800S41052B", "naptan:Bearing": "S", "naptan:CommonName": "GROVE STREET/MYRTLE STREET", "naptan:Indicator": "GROVE STREET/MYRTLE STREET", "naptan:Landmark": "OPP UNIVERSITY OF LIVERPOOL GYM. AND EXAM HALLS", "naptan:NaptanCode": "merdgadw", "naptan:Notes": "No Notes", "naptan:PlusbusZoneRef": "LVRPLCH", "naptan:ShortCommonName": "Gr St/Myrtle St", "naptan:Street": "GROVE STREET", "naptan:verified": "no", "public_transport": "platform", "shelter": "no", "source": "naptan_import"}}, {"type": "node", "id": 533855954, "lat": 53.4021267, "lon": -2.962197, "tags": {"bench": "no", "bin": "no", "bus": "yes", "departures_board": "timetable", "highway": "bus_stop", "lit": "yes", "name": "GROVE STREET/OXFORD STREET", "naptan:AtcoCode": "2800S41078A", "naptan:Bearing": "N", "naptan:CommonName": "GROVE STREET/OXFORD STREET", "naptan:Indicator": "GROVE STREET/OXFORD STREET", "naptan:Landmark": "CORNER CAMBRIDGE STREET NR LIVERPOOL UNIVERSITY", "naptan:NaptanCode": "merdgdmg", "naptan:Notes": "No Notes", "naptan:PlusbusZoneRef": "LVRPLCH", "naptan:ShortCommonName": "Gr St/Oxford St", "naptan:Street": "GROVE STREET", "naptan:verified": "no", "public_transport": "platform", "shelter": "no", "source": "naptan_import"}}, {"type": "node", "id": 533855957, "lat": 53.4025526, "lon": -2.9619181, "tags": {"bench": "yes", "bin": "yes", "bus": "yes", "departures_board": "timetable", "highway": "bus_stop", "lit": "yes", "name": "Grove Street/Oxford Street", "naptan:AtcoCode": "2800S41078B", "naptan:Bearing": "S", "naptan:CommonName": "GROVE STREET/OXFORD STREET", "naptan:Indicator": "GROVE STREET/OXFORD STREET", "naptan:Landmark": "NR CORNER OXFORD STREET", "naptan:NaptanCode": "merdgdmj", "naptan:Notes": "No Notes", "naptan:PlusbusZoneRef": "LVRPLCH", "naptan:ShortCommonName": "Gr St/Oxford St", "naptan:Street": "GROVE STREET", "naptan:verified": "yes", "public_transport": "platform", "shelter": "yes", "source": "naptan_import", "tactile_paving": "no"}}, {"type": "node", "id": 533855959, "lat": 53.4029315, "lon": -2.9605987, "tags": {"bench": "yes", "bin": "no", "bus": "yes", "highway": "bus_stop", "lit": "yes", "name": "OXFORD STREET/CROWN STREET", "naptan:AtcoCode": "2800S41078C", "naptan:Bearing": "W", "naptan:CommonName": "OXFORD STREET/CROWN STREET", "naptan:Indicator": "OXFORD STREET/CROWN STREET", "naptan:Landmark": "NR CORNER GROVE STREET", "naptan:NaptanCode": "merdgdmp", "naptan:Notes": "No Notes", "naptan:PlusbusZoneRef": "LVRPLCH", "naptan:ShortCommonName": "Oxford St/Crown St", "naptan:Street": "OXFORD STREET", "naptan:verified": "no", "public_transport": "platform", "shelter": "yes", "source": "naptan_import"}}, {"type": "node", "id": 533855961, "lat": 53.4030722, "lon": -2.9607704, "tags": {"bench": "yes", "bin": "no", "bus": "yes", "highway": "bus_stop", "lit": "yes", "name": "OXFORD STREET EAST/CROWN STREET", "naptan:AtcoCode": "2800S41078D", "naptan:Bearing": "E", "naptan:CommonName": "OXFORD STREET EAST/CROWN STREET", "naptan:Indicator": "OXFORD STREET EAST/CROWN STREET", "naptan:Landmark": "OXFORD ST E/CROWN ST", "naptan:NaptanCode": "merdgdmt", "naptan:Notes": "No Notes", "naptan:PlusbusZoneRef": "LVRPLCH", "naptan:ShortCommonName": "The Oxford", "naptan:Street": "OXFORD STREET EAST", "naptan:verified": "no", "public_transport": "platform", "shelter": "yes", "source": "naptan_import"}}, {"type": "node", "id": 533856302, "lat": 53.401275, "lon": -2.9685115, "tags": {"bench": "yes", "bin": "no", "bus": "yes", "covered": "no", "highway": "bus_stop", "lit": "yes", "name": "Myrtle Street / Mulberry Street", "naptan:AtcoCode": "2800S41121D", "naptan:Bearing": "E", "naptan:CommonName": "MYRTLE STREET/HOPE STREET", "naptan:Indicator": "MYRTLE STREET/HOPE STREET", "naptan:Landmark": "NR ROYAL LIVERPOOL CHILDRENS HOSPITAL", "naptan:NaptanCode": "merdgmpj", "naptan:Notes": "No Notes", "naptan:PlusbusZoneRef": "LVRPLCH", "naptan:ShortCommonName": "Myrtle St/Hope St", "naptan:Street": "MYRTLE STREET", "naptan:verified": "yes", "public_transport": "platform", "shelter": "yes", "source": "naptan_import", "tactile_paving": "yes"}}, {"type": "node", "id": 533856743, "lat": 53.4056561, "lon": -2.9617595, "tags": {"bench": "yes", "bin": "no", "bus": "yes", "highway": "bus_stop", "lit": "yes", "name": "CROWN STREET/PADDINGTON", "naptan:AtcoCode": "2800S42041A", "naptan:Bearing": "NW", "naptan:CommonName": "CROWN STREET/PADDINGTON", "naptan:Indicator": "CROWN STREET/PADDINGTON", "naptan:Landmark": "OU/S LIVERPOOL UNIVERSITY DOMAN LAB SERVICE ENTR", "naptan:NaptanCode": "merdjapg", "naptan:Notes": "No Notes", "naptan:PlusbusZoneRef": "LVRPLCH", "naptan:ShortCommonName": "Crown St/Paddington", "naptan:Street": "CROWN STREET", "naptan:verified": "no", "public_transport": "platform", "shelter": "yes", "source": "naptan_import"}}, {"type": "node", "id": 533856746, "lat": 53.405395, "lon": -2.9615667, "tags": {"bench": "yes", "bin": "no", "bus": "yes", "highway": "bus_stop", "lit": "yes", "name": "CROWN STREET/PADDINGTON", "naptan:AtcoCode": "2800S42041B", "naptan:Bearing": "SE", "naptan:CommonName": "CROWN STREET/PADDINGTON", "naptan:Indicator": "CROWN STREET/PADDINGTON", "naptan:Landmark": "OPP LIVERPOOL UNIVERSITY DOMAN LABORATORIES", "naptan:NaptanCode": "merdjapj", "naptan:Notes": "No Notes", "naptan:PlusbusZoneRef": "LVRPLCH", "naptan:ShortCommonName": "Crown St/Paddington", "naptan:Street": "CROWN STREET", "naptan:verified": "no", "public_transport": "platform", "shelter": "yes", "source": "naptan_import"}}, {"type": "node", "id": 533856756, "lat": 53.403788, "lon": -2.9684302, "tags": {"bench": "yes", "bin": "no", "bus": "yes", "highway": "bus_stop", "lit": "yes", "name": "MOUNT PLEASANT/CATHEDRAL", "naptan:AtcoCode": "2800S42048A", "naptan:Bearing": "NE", "naptan:CommonName": "MOUNT PLEASANT/CATHEDRAL", "naptan:Indicator": "MOUNT PLEASANT/HOPE STREET", "naptan:Landmark": "O/S CATHEDRAL", "naptan:NaptanCode": "merdjawj", "naptan:Notes": "No Notes", "naptan:PlusbusZoneRef": "LVRPLCH", "naptan:ShortCommonName": "R.C Cathedral", "naptan:Street": "MOUNT PLEASANT", "naptan:verified": "no", "public_transport": "platform", "shelter": "yes", "source": "naptan_import", "tactile_paving": "no"}}, {"type": "node", "id": 533856758, "lat": 53.4034427, "lon": -2.9675582, "tags": {"bench": "yes", "bin": "no", "bus": "yes", "highway": "bus_stop", "lit": "yes", "name": "Oxford Street/Mount Pleasant", "naptan:AtcoCode": "2800S42048C", "naptan:Bearing": "E", "naptan:CommonName": "OXFORD STREET/BANK", "naptan:Indicator": "OXFORD STREET/ABERCROMBY SQUARE", "naptan:Landmark": "O/S MIDLAND BANK AND NATWEST BANK", "naptan:NaptanCode": "merdjawp", "naptan:Notes": "No Notes", "naptan:PlusbusZoneRef": "LVRPLCH", "naptan:ShortCommonName": "Oxford St/Bank", "naptan:Street": "OXFORD STREET", "naptan:verified": "yes", "public_transport": "platform", "route_ref": "699", "shelter": "yes", "source": "naptan_import"}}, {"type": "node", "id": 533856761, "lat": 53.4033066, "lon": -2.9649625, "tags": {"bench": "yes", "bin": "no", "bus": "yes", "covered": "no", "highway": "bus_stop", "lit": "yes", "name": "Abercromby Square/Bedford Street North", "naptan:AtcoCode": "2800S42049A", "naptan:Bearing": "E", "naptan:CommonName": "LIVERPOOL UNIVERISTY/ABERCROMBY SQ/OXFORD ST", "naptan:Indicator": "ABERCROMBY SQUARE/OXFORD STREET", "naptan:Landmark": "O/S 33", "naptan:NaptanCode": "merdjawt", "naptan:Notes": "No Notes", "naptan:PlusbusZoneRef": "LVRPLCH", "naptan:ShortCommonName": "Liverpool Uni", "naptan:Street": "ABERCROMBY SQUARE", "naptan:verified": "yes", "public_transport": "platform", "shelter": "yes", "source": "naptan_import", "tactile_paving": "no"}}, {"type": "node", "id": 533856762, "lat": 53.4031836, "lon": -2.9648358, "tags": {"bench": "yes", "bin": "no", "bus": "yes", "covered": "no", "highway": "bus_stop", "lit": "yes", "name": "Abercromby Square opposite Bedford Street North", "naptan:AtcoCode": "2800S42049B", "naptan:Bearing": "W", "naptan:CommonName": "LIVERPOOL UNIVERSITY/ABERCROMBY SQ/OXFORD ST", "naptan:Indicator": "ABERCROMBY SQUARE/OXFORD STREET", "naptan:Landmark": "NR LIVERPOOL UNIVERSITY", "naptan:NaptanCode": "merdjdad", "naptan:Notes": "No Notes", "naptan:PlusbusZoneRef": "LVRPLCH", "naptan:ShortCommonName": "Liverpool Uni", "naptan:Street": "ABERCROMBY SQUARE", "naptan:verified": "yes", "public_transport": "platform", "shelter": "yes", "source": "naptan_import", "tactile_paving": "no"}}, {"type": "node", "id": 533856784, "lat": 53.4051983, "lon": -2.966778, "tags": {"bus": "yes", "highway": "bus_stop", "name": "MOUNT PLEASANT/MOUNTFORD HALL", "naptan:AtcoCode": "2800S42053C", "naptan:Bearing": "NE", "naptan:CommonName": "MOUNT PLEASANT/MOUNTFORD HALL", "naptan:Indicator": "MOUNT PLEASANT/BROWNLOW HILL", "naptan:Landmark": "O/S CATHEDRAL CRYPT OPP MOUNTFORD HALL", "naptan:NaptanCode": "merdjdgm", "naptan:Notes": "No Notes", "naptan:PlusbusZoneRef": "LVRPLCH", "naptan:ShortCommonName": "Mountford Hall", "naptan:Street": "MOUNT PLEASANT", "naptan:verified": "no", "public_transport": "platform", "source": "naptan_import"}}, {"type": "node", "id": 533856786, "lat": 53.4055962, "lon": -2.9662354, "tags": {"bench": "yes", "bin": "yes", "bus": "yes", "highway": "bus_stop", "lit": "yes", "name": "MOUNT PLEASANT/MOUNTFORD HALL", "naptan:AtcoCode": "2800S42053D", "naptan:Bearing": "SW", "naptan:CommonName": "MOUNT PLEASANT/MOUNTFORD HALL", "naptan:Indicator": "MOUNT PLEASANT/BROWNLOW HILL", "naptan:Landmark": "OPP CATHEDRAL 1 OF 2 0/S STUDENTS UNION MOUNTFOR", "naptan:NaptanCode": "merdjdgp", "naptan:Notes": "No Notes", "naptan:PlusbusZoneRef": "LVRPLCH", "naptan:ShortCommonName": "Mountford Hall", "naptan:Street": "MOUNT PLEASANT", "naptan:verified": "no", "public_transport": "platform", "shelter": "yes", "source": "naptan_import"}}, {"type": "node", "id": 533856788, "lat": 53.4054754, "lon": -2.9663406, "tags": {"bench": "yes", "bin": "no", "bus": "yes", "highway": "bus_stop", "lit": "yes", "name": "MOUNT PLEASANT/MOUNTFORD HALL", "naptan:AtcoCode": "2800S42053E", "naptan:Bearing": "SW", "naptan:CommonName": "MOUNT PLEASANT/MOUNTFORD HALL", "naptan:Indicator": "MOUNT PLEASANT/BROWNLOW HILL", "naptan:Landmark": "OPP CATHEDRAL O/S STUDENTS UNION MOUNTFORD HALL", "naptan:NaptanCode": "merdjdgt", "naptan:Notes": "No Notes", "naptan:PlusbusZoneRef": "LVRPLCH", "naptan:ShortCommonName": "Mountford Hall", "naptan:Street": "MOUNT PLEASANT", "naptan:verified": "no", "public_transport": "platform", "shelter": "yes", "source": "naptan_import"}}, {"type": "node", "id": 567421344, "lat": 53.4031595, "lon": -2.9683283, "tags": {"amenity": "pub", "name": "The Font"}}, {"type": "node", "id": 567422269, "lat": 53.4013438, "lon": -2.9683438, "tags": {"amenity": "pub", "name": "Baa Bar"}}, {"type": "node", "id": 1950696755, "lat": 53.4023932, "lon": -2.9667775, "tags": {"addr:city": "Liverpool", "addr:housenumber": "5-7", "addr:street": "Mulberry Street", "amenity": "pub", "brand": "Marston's", "brand:wikidata": "Q6773982", "fhrs:id": "496868", "name": "The Cambridge", "website": "https://www.cambridgehotelliverpool.co.uk/"}}, {"type": "node", "id": 1990939853, "lat": 53.4012077, "lon": -2.9640999, "tags": {"addr:housename": "Vine Court", "addr:street": "Chatham Street", "amenity": "restaurant", "kids_area": "no", "name": "Bertie & Bella's", "operator": "University of Liverpool", "reservation": "no", "wheelchair": "yes"}}, {"type": "node", "id": 2039846289, "lat": 53.4008945, "lon": -2.9680069, "tags": {"addr:street": "Myrtle Street", "brand": "Co-op Food", "brand:wikidata": "Q3277439", "brand:wikipedia": "en:Co-op Food", "check_date": "2024-07-15", "check_date:opening_hours": "2024-07-15", "name": "Co-op Food", "opening_hours": "Mo-Su 06:00-23:00", "operator": "The Co-operative Group", "operator:wikidata": "Q117202", "shop": "convenience", "website": "https://www.coop.co.uk/store-finder/L7-7DP/2g-myrtle-street"}}, {"type": "node", "id": 2646312424, "lat": 53.4057783, "lon": -2.9675806, "tags": {"brand": "Tesco Express", "brand:wikidata": "Q98456772", "brand:wikipedia": "en:Tesco", "contact:website": "https://www.tesco.com/store-locator/liverpool/6-10-the-foundation", "name": "Tesco Express", "shop": "convenience"}}, {"type": "node", "id": 4112993329, "lat": 53.4050279, "lon": -2.9664342, "tags": {"amenity": "pub", "name": "The Sphinx", "real_ale": "yes"}}, {"type": "node", "id": 4313979964, "lat": 53.4008191, "lon": -2.9666928, "tags": {"name": "Sida Express", "opening_hours": "10:00-21:00", "shop": "supermarket"}}, {"type": "node", "id": 4314148208, "lat": 53.4007734, "lon": -2.9678154, "tags": {"amenity": "fast_food", "brand": "Greggs", "brand:wikidata": "Q3403981", "brand:wikipedia": "en:Greggs", "contact:website": "https://www.greggs.co.uk/shop-finder?shop-code=2163", "cuisine": "sandwich;bakery", "name": "Greggs", "takeaway": "yes"}}, {"type": "node", "id": 4314148276, "lat": 53.4032096, "lon": -2.9673505}, {"type": "node", "id": 4314148277, "lat": 53.4032138, "lon": -2.9674423}, {"type": "node", "id": 4314148278, "lat": 53.403218, "lon": -2.967534}, {"type": "node", "id": 4314148281, "lat": 53.4033019, "lon": -2.9673408}, {"type": "node", "id": 4314148282, "lat": 53.4033061, "lon": -2.967432}, {"type": "node", "id": 4314148283, "lat": 53.4033102, "lon": -2.9675232}, {"type": "node", "id": 4417944959, "lat": 53.4052245, "lon": -2.9664117, "tags": {"name": "UoL Guild Shop", "opening_hours": "Mo-Fr 08:30-18:00; Sa 09:30-16:00; Su 09:30-16:00", "shop": "convenience"}}, {"type": "node", "id": 4442964543, "lat": 53.4006014, "lon": -2.9648518, "tags": {"brand": "Tesco Express", "brand:wikidata": "Q98456772", "brand:wikipedia": "en:Tesco", "contact:website": "https://www.tesco.com/store-locator/liverpool/myrtle-st", "name": "Tesco Express", "shop": "convenience"}}, {"type": "node", "id": 4442964557, "lat": 53.4009389, "lon": -2.9641518, "tags": {"addr:city": "Liverpool", "addr:housenumber": "35", "addr:postcode": "L7 7AJ", "addr:street": "Myrtle Street", "amenity": "fast_food", "brand": "Subway", "brand:wikidata": "Q244457", "cuisine": "sandwich", "fhrs:id": "1533498", "level": "0", "name": "Subway", "source:addr": "FHRS Open Data", "takeaway": "yes"}}, {"type": "node", "id": 5683169656, "lat": 53.4006353, "lon": -2.9654492, "tags": {"addr:place": "Myrtle Parade", "addr:postcode": "L7 7EL", "addr:unit": "4", "alt_name": "Kentucky Fried Chicken", "amenity": "fast_food", "brand": "KFC", "brand:wikidata": "Q524757", "changing_table:count": "1", "changing_table:fee": "no", "changing_table:location": "wheelchair_toilet", "cuisine": "chicken", "level": "0", "name": "KFC", "takeaway": "yes"}}, {"type": "node", "id": 5683169768, "lat": 53.4006249, "lon": -2.9653218, "tags": {"addr:city": "Liverpool", "addr:country": "GB", "addr:housenumber": "5", "addr:postcode": "L7 7EL", "addr:street": "Myrtle Parade", "brand": "Heron Foods", "brand:wikidata": "Q5743472", "check_date": "2026-02-17", "check_date:opening_hours": "2026-02-17", "name": "Heron Foods", "opening_hours": "Mo-Sa 08:00-20:00; Su 10:00-16:00", "shop": "supermarket", "website": "https://heronfoods.com/store/myrtle-parade/"}}, {"type": "node", "id": 9399710517, "lat": 53.4005588, "lon": -2.9657378, "tags": {"addr:housenumber": "1", "addr:street": "Myrtle Parade", "name": "eJoy Asian Foods", "name:en": "Ejoy supermarket", "shop": "supermarket"}}, {"type": "node", "id": 9399715517, "lat": 53.4008343, "lon": -2.9664492, "tags": {"addr:housenumber": "8-10", "addr:street": "Myrtle Street", "amenity": "restaurant", "name": "Mr Zhang's Kitchen"}}, {"type": "node", "id": 10157380229, "lat": 53.4035108, "lon": -2.9676054, "tags": {"level": "0", "name": "Liverpool Student Homes", "office": "estate_agent", "opening_hours": "Mo-Fr 09:00-16:30", "wheelchair": "yes"}}, {"type": "node", "id": 11365433570, "lat": 53.4049936, "lon": -2.9662558, "tags": {"amenity": "fast_food", "fast_food": "cafeteria", "name": "The Courtyard"}}, {"type": "node", "id": 13152403613, "lat": 53.4008876, "lon": -2.9625524, "tags": {"amenity": "pharmacy", "healthcare": "pharmacy", "name": "Chemist Cares"}}, {"type": "way", "id": 432340342, "nodes": [4314148282, 4314148283, 4314148278, 4314148277, 4314148282], "tags": {"addr:city": "Liverpool", "addr:housenumber": "18", "addr:street": "Oxford Street", "building": "house", "name": "UNITE Liverpool University branch", "office": "union", "source:geometry": "Bing 2012", "wheelchair": "no"}}, {"type": "way", "id": 432340343, "nodes": [4314148281, 4314148282, 4314148277, 4314148276, 4314148281], "tags": {"addr:city": "Liverpool", "addr:housenumber": "20", "addr:street": "Oxford Street", "building": "house", "name": "University of Liverpool UCU", "office": "union", "source:geometry": "Bing 2012", "wheelchair": "no"}}]}