{"version": 0.6, "generator": "Overpass API 0.7.62.11 87bfad18", "osm3s": {"timestamp_osm_base": "2026-05-18T15:03:15Z", "copyright": "The data included in this document is from www.openstreetmap.org. The data is made available under ODbL."}, "elements": [{"type": "node", "id": 2696055129, "lat": -33.9225552, "lon": 150.9233638, "tags": {"bench": "yes", "bin": "yes", "bus": "yes", "gtfs:stop_id": "2170593", "highway": "bus_stop", "lit": "no", "name": "Macquarie, Liverpool-Parramatta Twy", "network": "Transport Buses", "network:wikidata": "Q5001345", "public_transport": "platform", "ref": "2170593", "shelter": "yes", "source": "survey", "tactile_paving": "no"}}, {"type": "node", "id": 2877122674, "lat": -33.9222574, "lon": 150.9221829, "tags": {"bench": "yes", "bin": "yes", "bus": "yes", "gtfs:stop_id": "2170719", "highway": "bus_stop", "lit": "yes", "name": "Moore St at Northumberland St", "network": "Transport Buses", "network:wikidata": "Q5001345", "public_transport": "platform", "ref": "2170719", "shelter": "yes", "source": "survey", "tactile_paving": "no"}}, {"type": "node", "id": 2888497113, "lat": -33.9244285, "lon": 150.9192513, "tags": {"bench": "no", "bin": "no", "bus": "yes", "highway": "bus_stop", "lit": "no", "name:signed": "no", "public_transport": "platform", "ref:signed": "no", "shelter": "no", "source": "survey", "tactile_paving": "no"}}, {"type": "node", "id": 2888497115, "lat": -33.9241127, "lon": 150.9169957, "tags": {"bus": "yes", "gtfs:stop_id": "2170483", "highway": "bus_stop", "name": "Memorial Av before Beale St", "network": "Transport Buses", "network:wikidata": "Q5001345", "public_transport": "platform", "ref": "2170483", "source": "survey"}}, {"type": "node", "id": 4546122489, "lat": -33.9260572, "lon": 150.9207346, "tags": {"amenity": "restaurant", "name": "Thai Me", "name:en": "Thai Me"}}, {"type": "node", "id": 4570273692, "lat": -33.9234562, "lon": 150.9220395, "tags": {"addr:housenumber": "211-231", "addr:postcode": "2170", "addr:street": "Northumberland Street", "addr:suburb": "Liverpool", "check_date": "2024-01-21", "government": "register_office", "name": "Centrelink Liverpool Service Centre", "office": "government"}}, {"type": "node", "id": 6419107187, "lat": -33.9229942, "lon": 150.9225615, "tags": {"check_date": "2024-01-21", "name": "Middle East Supermarket", "shop": "convenience"}}, {"type": "node", "id": 9672988124, "lat": -33.9247773, "lon": 150.9206341, "tags": {"name": "Sedra Groceries", "shop": "convenience"}}, {"type": "node", "id": 9672988194, "lat": -33.9272589, "lon": 150.9180227, "tags": {"amenity": "fast_food", "cuisine": "burger", "name": "Rons Handburger Liverpool"}}, {"type": "node", "id": 9672988217, "lat": -33.926889, "lon": 150.9194092, "tags": {"shop": "convenience"}}, {"type": "node", "id": 9672988220, "lat": -33.9251859, "lon": 150.9210639, "tags": {"name": "De Angelis Taylor & Associates PTY LTD", "office": "architect"}}, {"type": "node", "id": 9672988274, "lat": -33.9247832, "lon": 150.9214372, "tags": {"amenity": "fast_food", "cuisine": "juice", "name": "Tropicana"}}, {"type": "node", "id": 9672988275, "lat": -33.9247647, "lon": 150.9213125, "tags": {"name": "Sydney Murugan Store", "shop": "supermarket"}}, {"type": "node", "id": 9672988276, "lat": -33.9247309, "lon": 150.9211346, "tags": {"amenity": "fast_food", "brand": "Pizza Hut", "brand:wikidata": "Q191615", "brand:wikipedia": "en:Pizza Hut", "cuisine": "pizza", "name": "Pizza Hut Express", "takeaway": "yes"}}, {"type": "node", "id": 9673034457, "lat": -33.9249764, "lon": 150.9226633, "tags": {"amenity": "restaurant", "name": "SS Restaurant Lounge"}}, {"type": "node", "id": 9673034459, "lat": -33.9250449, "lon": 150.9225488, "tags": {"brand": "First National Real Estate", "brand:wikidata": "Q122888198", "name": "First National Real Estate", "office": "estate_agent"}}, {"type": "node", "id": 9673034465, "lat": -33.9253658, "lon": 150.9220335, "tags": {"brand": "Century 21", "brand:wikidata": "Q1054480", "brand:wikipedia": "en:Century 21 Real Estate", "name": "Century 21", "office": "estate_agent"}}, {"type": "node", "id": 9673034476, "lat": -33.9258273, "lon": 150.9214483, "tags": {"amenity": "fast_food", "cuisine": "burger", "indoor_seating": "yes", "name": "Classic Burger", "opening_hours": "Mo-Sa 12:00-24:00; Su 12:00-22:30", "outdoor_seating": "no"}}, {"type": "node", "id": 9673034477, "lat": -33.9257183, "lon": 150.9215767, "tags": {"name": "Liverpool India", "shop": "supermarket"}}, {"type": "node", "id": 9673034480, "lat": -33.9255424, "lon": 150.9218503, "tags": {"amenity": "restaurant", "indoor_seating": "yes", "name": "Hammoud 1 Restaurant", "outdoor_seating": "no"}}, {"type": "node", "id": 9673089716, "lat": -33.9255322, "lon": 150.9228581, "tags": {"amenity": "restaurant", "cuisine": "mediterranean", "name": "The Spot"}}, {"type": "node", "id": 9676422118, "lat": -33.9222937, "lon": 150.9230005, "tags": {"check_date": "2026-02-18", "name": "Cubic Real Estate Liverpool", "office": "estate_agent"}}, {"type": "node", "id": 9676422119, "lat": -33.9223051, "lon": 150.9230887, "tags": {"check_date": "2024-01-21", "name": "VF Menswear", "shop": "clothes"}}, {"type": "node", "id": 9676422242, "lat": -33.9221343, "lon": 150.9216538, "tags": {"amenity": "restaurant", "check_date": "2024-01-20", "cuisine": "italian", "name": "Cucina 105"}}, {"type": "node", "id": 9677051783, "lat": -33.92378, "lon": 150.922062, "tags": {"check_date": "2024-01-21", "name": "Amir Supermarket", "shop": "convenience"}}, {"type": "node", "id": 9677051803, "lat": -33.9230766, "lon": 150.9225509, "tags": {"name": "Lina Fashion", "shop": "clothes"}}, {"type": "node", "id": 9677054294, "lat": -33.924388, "lon": 150.9231411, "tags": {"amenity": "pharmacy", "check_date": "2024-01-21", "dispensing": "yes", "healthcare": "pharmacy", "name": "Save And Deliver Compounding Chemist"}}, {"type": "node", "id": 9677054302, "lat": -33.9241778, "lon": 150.923174, "tags": {"check_date": "2024-01-21", "name": "Mnadi Mini Mart", "shop": "convenience"}}, {"type": "node", "id": 9677054303, "lat": -33.9240529, "lon": 150.9231949, "tags": {"amenity": "pub", "check_date": "2024-01-21", "name": "Macquarie Hotel"}}, {"type": "node", "id": 9677054360, "lat": -33.9229292, "lon": 150.9234023, "tags": {"amenity": "restaurant", "check_date": "2024-01-21", "cuisine": "indian", "name": "The Kulcha House", "phone": "+61 2 8750 3952", "website": "https://thekulchahouse.com.au"}}, {"type": "node", "id": 9677054363, "lat": -33.923475, "lon": 150.9233136, "tags": {"name": "Grocery Shopping", "shop": "convenience"}}, {"type": "node", "id": 11775306780, "lat": -33.9221575, "lon": 150.9204001, "tags": {"bench": "no", "bin": "no", "bus": "yes", "gtfs:stop_id": "2170524", "highway": "bus_stop", "name": "Moore St opp Liverpool Presbyterian Church", "network": "Transport Buses", "network:wikidata": "Q5001345", "public_transport": "platform", "ref": "2170524", "shelter": "no", "tactile_paving": "no"}}]}