{"version": 0.6, "generator": "Overpass API 0.7.62.11 87bfad18", "osm3s": {"timestamp_osm_base": "2026-05-18T14:58:11Z", "copyright": "The data included in this document is from www.openstreetmap.org. The data is made available under ODbL."}, "elements": [{"type": "node", "id": 119741138, "lat": 53.3803471, "lon": -2.9468287, "tags": {"amenity": "fast_food", "changing_table": "no", "check_date:opening_hours": "2024-03-22", "cuisine": "chinese;fish_and_chips", "level": "0", "name": "Andy's Fish & Chips", "opening_hours": "Mo-Sa 16:30-22:00", "takeaway": "only", "toilets": "no", "wheelchair": "limited"}}, {"type": "node", "id": 119741146, "lat": 53.3810868, "lon": -2.9461567, "tags": {"amenity": "restaurant", "name": "Maranto's Restaurant & Bars", "wheelchair": "limited"}}, {"type": "node", "id": 369720604, "lat": 53.3780355, "lon": -2.9469683, "tags": {"addr:city": "Liverpool", "addr:housenumber": "208", "addr:postcode": "L17 9PE", "addr:street": "Aigburth Road", "amenity": "fast_food", "brand": "Subway", "brand:wikidata": "Q244457", "brand:wikipedia": "en:Subway (restaurant)", "check_date:opening_hours": "2022-11-19", "contact:website": "https://restaurants.subway.com/united-kingdom/en/liverpool/208-aigburth-road", "cuisine": "sandwich", "fhrs:id": "699857", "name": "Subway", "opening_hours:signed": "no", "takeaway": "yes"}}, {"type": "node", "id": 533855719, "lat": 53.3783299, "lon": -2.94762, "tags": {"bench": "yes", "bin": "yes", "bus": "yes", "highway": "bus_stop", "lit": "yes", "name": "Aigburth Road / St Michaels Road", "naptan:AtcoCode": "2800S41047A", "naptan:Bearing": "NW", "naptan:CommonName": "AIGBURTH ROAD/LARK LANE", "naptan:Indicator": "AIGBURTH ROAD/LARK LANE", "naptan:Landmark": "CORNER ST MICHAELS ROAD O/S KWIK SAVENUE SUPERM", "naptan:NaptanCode": "merdawpj", "naptan:Notes": "No Notes", "naptan:PlusbusZoneRef": "LVRPLCH", "naptan:ShortCommonName": "Aigburth Rd/Lark Ln", "naptan:Street": "AIGBURTH ROAD", "naptan:verified": "yes", "public_transport": "platform", "shelter": "yes", "source": "naptan_import"}}, {"type": "node", "id": 533855722, "lat": 53.3784467, "lon": -2.9479521, "tags": {"bench": "yes", "bin": "yes", "bus": "yes", "highway": "bus_stop", "lit": "yes", "name": "Aigburth Road / Thirlstane Street", "naptan:AtcoCode": "2800S41047B", "naptan:Bearing": "NW", "naptan:CommonName": "AIGBURTH ROAD/LARK LANE", "naptan:Indicator": "AIGBURTH ROAD/LARK LANE", "naptan:Landmark": "O/S TESCO'S SUPERMARKET AND ETHEL AUSTIN'S", "naptan:NaptanCode": "merdawpm", "naptan:Notes": "No Notes", "naptan:PlusbusZoneRef": "LVRPLCH", "naptan:ShortCommonName": "Aigburth Rd/Lark Ln", "naptan:Street": "AIGBURTH ROAD", "naptan:verified": "yes", "public_transport": "platform", "shelter": "yes", "source": "naptan_import"}}, {"type": "node", "id": 533855727, "lat": 53.3787137, "lon": -2.9478377, "tags": {"bench": "yes", "bin": "yes", "bus": "yes", "highway": "bus_stop", "lit": "yes", "name": "Aigburth Road / Lark Lane", "naptan:AtcoCode": "2800S41047D", "naptan:Bearing": "SE", "naptan:CommonName": "AIGBURTH ROAD/LARK LANE", "naptan:Indicator": "AIGBURTH ROAD/LARK LANE", "naptan:Landmark": "O/S PUBLIC WC NEAR LIBRARY", "naptan:NaptanCode": "merdawpw", "naptan:Notes": "No Notes", "naptan:PlusbusZoneRef": "LVRPLCH", "naptan:ShortCommonName": "Aigburth Rd/Lark Ln", "naptan:Street": "AIGBURTH ROAD", "naptan:verified": "yes", "passenger_information_display": "no", "public_transport": "platform", "shelter": "yes", "source": "naptan_import"}}, {"type": "node", "id": 533856416, "lat": 53.3800233, "lon": -2.9481975, "tags": {"bench": "yes", "bin": "yes", "bus": "yes", "highway": "bus_stop", "lit": "yes", "name": "Lark Way / Parkfield Road", "naptan:AtcoCode": "2800S41189A", "naptan:Bearing": "SE", "naptan:CommonName": "LARK WAY/PARKFIELD ROAD", "naptan:Indicator": "LARK WAY/PARKFIELD ROAD", "naptan:Landmark": "ADJ. 1-4 LINHOPE WAY", "naptan:NaptanCode": "merdgptw", "naptan:Notes": "No Notes", "naptan:PlusbusZoneRef": "LVRPLCH", "naptan:ShortCommonName": "Lark Way", "naptan:Street": "LARK WAY", "naptan:verified": "yes", "public_transport": "platform", "shelter": "yes", "source": "naptan_import", "tactile_paving": "yes"}}, {"type": "node", "id": 533856418, "lat": 53.3799682, "lon": -2.9483466, "tags": {"bench": "yes", "bin": "no", "bus": "yes", "highway": "bus_stop", "lit": "yes", "name": "Lark Way / Lark Lane", "naptan:AtcoCode": "2800S41189B", "naptan:Bearing": "NW", "naptan:CommonName": "LARK WAY/PARKFIELD ROAD", "naptan:Indicator": "LARK WAY/PARKFIELD ROAD", "naptan:Landmark": "OPP LINHOPE WAY", "naptan:NaptanCode": "merdgpwa", "naptan:Notes": "No Notes", "naptan:PlusbusZoneRef": "LVRPLCH", "naptan:ShortCommonName": "Lark Way", "naptan:Street": "LARK WAY", "naptan:verified": "yes", "public_transport": "platform", "shelter": "yes", "source": "naptan_import", "tactile_paving": "yes"}}, {"type": "node", "id": 1781316250, "lat": 53.3779648, "lon": -2.9483476}, {"type": "node", "id": 1781316251, "lat": 53.3779781, "lon": -2.9483333}, {"type": "node", "id": 1781316260, "lat": 53.3781734, "lon": -2.9482177}, {"type": "node", "id": 1781316266, "lat": 53.3779285, "lon": -2.9482521}, {"type": "node", "id": 1781316292, "lat": 53.3781488, "lon": -2.948153}, {"type": "node", "id": 1781316294, "lat": 53.3780032, "lon": -2.9483993}, {"type": "node", "id": 1781341241, "lat": 53.3795348, "lon": -2.9482625}, {"type": "node", "id": 1781341244, "lat": 53.379614, "lon": -2.9483175}, {"type": "node", "id": 1781341249, "lat": 53.3795724, "lon": -2.9483322}, {"type": "node", "id": 2018647184, "lat": 53.38139, "lon": -2.9453057, "tags": {"amenity": "restaurant", "cuisine": "mexican", "name": "La Parrilla"}}, {"type": "node", "id": 2018647833, "lat": 53.3806724, "lon": -2.9463895, "tags": {"amenity": "pub", "name": "The Masonic Arms"}}, {"type": "node", "id": 3013959177, "lat": 53.3806123, "lon": -2.9467977, "tags": {"amenity": "restaurant", "check_date:opening_hours": "2023-03-24", "contact:phone": "+44 151 728 9728", "cuisine": "indian", "name": "Taj", "opening_hours:signed": "no"}}, {"type": "node", "id": 3615169571, "lat": 53.3779141, "lon": -2.9481636}, {"type": "node", "id": 3615169577, "lat": 53.3779422, "lon": -2.9482375}, {"type": "node", "id": 3615169734, "lat": 53.3780966, "lon": -2.948302}, {"type": "node", "id": 3615169756, "lat": 53.3781605, "lon": -2.9482291}, {"type": "node", "id": 3615169760, "lat": 53.3781669, "lon": -2.948129}, {"type": "node", "id": 3615169777, "lat": 53.3782139, "lon": -2.9482585}, {"type": "node", "id": 3615169895, "lat": 53.3782641, "lon": -2.9482105}, {"type": "node", "id": 3615169907, "lat": 53.3782944, "lon": -2.9477578}, {"type": "node", "id": 3615169932, "lat": 53.37836, "lon": -2.9479321}, {"type": "node", "id": 3615169947, "lat": 53.3784052, "lon": -2.9480601}, {"type": "node", "id": 3615170107, "lat": 53.3785949, "lon": -2.948765}, {"type": "node", "id": 3615170121, "lat": 53.3786664, "lon": -2.9489562}, {"type": "node", "id": 3615170125, "lat": 53.3786921, "lon": -2.9486586}, {"type": "node", "id": 3615170131, "lat": 53.3787643, "lon": -2.9488525}, {"type": "node", "id": 4508516517, "lat": 53.380146, "lon": -2.9471551, "tags": {"amenity": "restaurant", "cuisine": "mediterranean", "name": "Elif", "opening_hours": "Su-Th 12:00-22:00; Fr,Sa 12:00-22:30", "smoking": "no", "takeaway": "no"}}, {"type": "node", "id": 4508516518, "lat": 53.3800816, "lon": -2.9472276, "tags": {"amenity": "pub", "check_date:opening_hours": "2023-02-16", "delivery": "yes", "name": "Bookbinder", "opening_hours:signed": "no"}}, {"type": "node", "id": 4515273377, "lat": 53.3817901, "lon": -2.9448486}, {"type": "node", "id": 4515273378, "lat": 53.3816819, "lon": -2.9450068}, {"type": "node", "id": 4515273379, "lat": 53.3814952, "lon": -2.9446356}, {"type": "node", "id": 4515273380, "lat": 53.3816031, "lon": -2.944483}, {"type": "node", "id": 4515273382, "lat": 53.3817197, "lon": -2.9447089}, {"type": "node", "id": 4530390079, "lat": 53.3807294, "lon": -2.9466418, "tags": {"addr:street": "Lark Lane", "amenity": "pub", "name": "Rhubarb"}}, {"type": "node", "id": 4534476697, "lat": 53.3822509, "lon": -2.9441487, "tags": {"addr:city": "Liverpool", "addr:housenumber": "88-90", "addr:postcode": "L17 8UU", "addr:street": "Lark Lane", "amenity": "restaurant", "name": "Milo Lounge", "opening_hours": "Mo-Su 09:00-23:00", "opening_hours:kitchen": "Mo-Su 09:00-22:00", "phone": "+44 151 727 2285", "website": "https://www.thelounges.co.uk", "wheelchair": "yes"}}, {"type": "node", "id": 4562060232, "lat": 53.3820424, "lon": -2.944805, "tags": {"brand": "Co-op Food", "brand:wikidata": "Q3277439", "brand:wikipedia": "en:Co-op Food", "check_date": "2024-07-15", "check_date:opening_hours": "2024-07-15", "level": "0", "name": "Co-op Food", "opening_hours": "Mo-Su 07:00-22:00", "operator": "The Co-operative Group", "operator:wikidata": "Q117202", "shop": "supermarket", "toilets": "no", "website": "https://www.coop.co.uk/store-finder/L17-8UR/125-129-lark-lane", "wheelchair": "yes"}}, {"type": "node", "id": 4562458424, "lat": 53.3815081, "lon": -2.9455044}, {"type": "node", "id": 4564906763, "lat": 53.3788141, "lon": -2.9479113}, {"type": "node", "id": 4564906764, "lat": 53.3787272, "lon": -2.9477284}, {"type": "node", "id": 4564906765, "lat": 53.3787977, "lon": -2.9476342}, {"type": "node", "id": 4564906766, "lat": 53.3788574, "lon": -2.9477597}, {"type": "node", "id": 4564906767, "lat": 53.3788292, "lon": -2.9477974}, {"type": "node", "id": 4564906768, "lat": 53.3788564, "lon": -2.9478548}, {"type": "node", "id": 4625757766, "lat": 53.380893, "lon": -2.9460656}, {"type": "node", "id": 4625757768, "lat": 53.3808159, "lon": -2.9459028}, {"type": "node", "id": 4625757770, "lat": 53.3809156, "lon": -2.9457706}, {"type": "node", "id": 4625757771, "lat": 53.3809925, "lon": -2.9459347}, {"type": "node", "id": 5711471556, "lat": 53.3798641, "lon": -2.9481189}, {"type": "node", "id": 5711471557, "lat": 53.3796498, "lon": -2.9482844}, {"type": "node", "id": 5711471558, "lat": 53.3796546, "lon": -2.9480942}, {"type": "node", "id": 5711471559, "lat": 53.3797392, "lon": -2.9479925}, {"type": "node", "id": 5711471560, "lat": 53.3798108, "lon": -2.9480049}, {"type": "node", "id": 5711471561, "lat": 53.3798439, "lon": -2.9480665}, {"type": "node", "id": 6331369620, "lat": 53.3815014, "lon": -2.9452193, "tags": {"amenity": "fast_food", "cuisine": "burger", "name": "Top Burger"}}, {"type": "node", "id": 8791343575, "lat": 53.3816576, "lon": -2.9455779}, {"type": "node", "id": 8791343576, "lat": 53.3815746, "lon": -2.9454112}, {"type": "node", "id": 8791343577, "lat": 53.3815911, "lon": -2.945671}, {"type": "node", "id": 8792415136, "lat": 53.3809134, "lon": -2.9464193, "tags": {"amenity": "pub", "name": "The Green Man"}}, {"type": "node", "id": 8792415139, "lat": 53.3808012, "lon": -2.946537, "tags": {"amenity": "fast_food", "check_date:opening_hours": "2022-11-16", "name": "Takeaway Land", "opening_hours:signed": "no"}}, {"type": "node", "id": 10128505448, "lat": 53.3814801, "lon": -2.9455719, "tags": {"check_date:opening_hours": "2023-03-24", "level": "0", "name": "The Retro Room", "opening_hours:signed": "no", "second_hand": "only", "shop": "clothes"}}, {"type": "node", "id": 10155594551, "lat": 53.3812127, "lon": -2.9459581, "tags": {"name": "Lark Lane Mini Mart", "shop": "convenience", "wheelchair": "no"}}, {"type": "node", "id": 10155594553, "lat": 53.3812793, "lon": -2.9458545, "tags": {"addr:housenumber": "75", "addr:street": "Lark Lane", "amenity": "restaurant", "cuisine": "sushi", "name": "Zumuku Sushi"}}, {"type": "node", "id": 10203875201, "lat": 53.3803912, "lon": -2.9467767, "tags": {"amenity": "restaurant", "cuisine": "greek", "name": "Meat Me"}}, {"type": "node", "id": 10308726445, "lat": 53.3810452, "lon": -2.9462207, "tags": {"check_date:opening_hours": "2023-03-24", "name": "Park Estates", "office": "estate_agent", "opening_hours:signed": "no"}}, {"type": "node", "id": 10669577850, "lat": 53.3812515, "lon": -2.9459041, "tags": {"amenity": "restaurant", "name": "Hafla Hafla"}}, {"type": "node", "id": 12512478863, "lat": 53.3807737, "lon": -2.9466371, "tags": {"check_date:opening_hours": "2025-01-18", "name": "Pretty Flamingo Vintage", "opening_hours:signed": "no", "second_hand": "only", "shop": "clothes"}}, {"type": "way", "id": 166680035, "nodes": [1781316294, 1781316251, 1781316250, 1781316266, 3615169577, 3615169571, 3615169907, 3615169932, 3615169760, 1781316292, 1781316260, 3615169756, 3615169734, 1781316294], "tags": {"addr:city": "Liverpool", "addr:housenumber": "184-198", "addr:postcode": "L17 9PE", "addr:street": "Aigburth Road", "brand": "Tesco", "brand:wikidata": "Q487494", "building": "retail", "check_date:opening_hours": "2026-03-22", "fhrs:id": "495967", "name": "Tesco", "opening_hours": "Mo-Sa 07:00-22:00; Su 10:00-16:00", "operator": "Tesco", "shop": "supermarket", "website": "https://www.tesco.com/store-locator/liverpool/184-198-aigburth-rd", "wheelchair": "yes"}}, {"type": "way", "id": 356035711, "nodes": [3615170131, 3615170121, 3615170107, 3615170125, 3615170131], "tags": {"amenity": "fast_food", "brand": "Domino's", "brand:wikidata": "Q839466", "building": "retail", "cuisine": "pizza", "name": "Domino's", "takeaway": "yes"}}, {"type": "way", "id": 356035770, "nodes": [3615169760, 3615169777, 3615169895, 3615169947, 3615169932, 3615169760], "tags": {"addr:city": "Liverpool", "addr:country": "GB", "addr:housenumber": "180-182", "addr:postcode": "L17 9PE", "addr:street": "Aigburth Road", "brand": "Heron Foods", "brand:wikidata": "Q5743472", "brand:wikipedia": "en:Heron Foods", "building": "retail", "check_date": "2026-03-22", "check_date:opening_hours": "2026-03-22", "fhrs:id": "634313", "name": "Heron Foods", "opening_hours": "Mo-Sa 08:00-19:00; Su 09:00-17:00", "shop": "supermarket", "website": "https://heronfoods.com/store/aigburth-road/"}}, {"type": "way", "id": 455075107, "nodes": [4515273377, 4515273378, 4515273379, 4515273380, 4515273382, 4515273377], "tags": {"addr:city": "Liverpool", "addr:housenumber": "66-68", "addr:postcode": "L17 8UU", "addr:street": "Lark Lane", "amenity": "pub", "building": "retail", "name": "The Albert", "operator": "Stonegate", "operator:wikidata": "Q7619176", "phone": "+44 151 726 9119", "smoking": "outside", "website": "https://www.crafted-social.co.uk/albert-hotel-liverpool", "wikidata": "Q26367801"}}, {"type": "way", "id": 460908550, "nodes": [4564906763, 4564906764, 4564906765, 4564906766, 4564906767, 4564906768, 4564906763], "tags": {"amenity": "restaurant", "building": "retail", "cuisine": "steak_house", "name": "Churrasco Steak House"}}, {"type": "way", "id": 468024024, "nodes": [4625757766, 4625757768, 4625757770, 4625757771, 4625757766], "tags": {"addr:housenumber": "40", "addr:street": "Lark Lane", "amenity": "restaurant", "building": "yes", "cuisine": "traditional", "name": "The Old School House"}}, {"type": "way", "id": 600766009, "nodes": [5711471556, 5711471557, 1781341244, 1781341249, 1781341241, 5711471558, 5711471559, 5711471560, 5711471561, 5711471556], "tags": {"amenity": "restaurant", "building": "retail", "name": "Al Dente"}}, {"type": "way", "id": 949639763, "nodes": [8791343575, 8791343576, 4562458424, 8791343577, 8791343575], "tags": {"amenity": "restaurant", "building": "yes", "cuisine": "chinese", "name": "Yum Cha"}}]}