{"version": 0.6, "generator": "Overpass API 0.7.62.11 87bfad18", "osm3s": {"timestamp_osm_base": "2026-05-18T15:09:21Z", "copyright": "The data included in this document is from www.openstreetmap.org. The data is made available under ODbL."}, "elements": [{"type": "node", "id": 110696984, "lat": 53.4133146, "lon": -2.9136059, "tags": {"amenity": "pub", "name": "The Old Swan", "operator": "Stonegate", "operator:wikidata": "Q7619176", "website": "https://www.greatukpubs.co.uk/old-swan-liverpool"}}, {"type": "node", "id": 110696992, "lat": 53.4135679, "lon": -2.9111126, "tags": {"addr:city": "Liverpool", "addr:housenumber": "646", "addr:postcode": "L13 5XE", "addr:street": "Prescot Road", "amenity": "pub", "brand": "Greene King", "brand:wikidata": "Q5564162", "fhrs:id": "497019", "name": "Mason's Arms", "source:addr": "FHRS Open Data", "website": "https://www.greeneking.co.uk/pubs/merseyside/masons-arms"}}, {"type": "node", "id": 483249957, "lat": 53.4129373, "lon": -2.9140645, "tags": {"addr:city": "Liverpool", "addr:postcode": "L13 5SA", "addr:street": "St Oswalds Street", "amenity": "pharmacy", "brand": "Allied Pharmacies", "brand:wikidata": "Q116272370", "dispensing": "yes", "healthcare": "pharmacy", "name": "Allied Pharmacy", "website": "https://alliedpharmacies.com/pharmacy/allied-pharmacy-old-swan"}}, {"type": "node", "id": 483250585, "lat": 53.4134308, "lon": -2.9120333, "tags": {"addr:city": "Liverpool", "addr:housenumber": "620-622", "addr:postcode": "L13 5XE", "addr:street": "Prescot Road", "amenity": "pharmacy", "fixme": "Is this still here? (Website is 404.)", "healthcare": "pharmacy", "name": "Allied Pharmacy", "note": "double unit", "phone": "+44 151 2287231", "website": "https://www.nhs.uk/services/pharmacy/allied-pharmacy-prescot-road/FJA72", "wheelchair": "yes"}}, {"type": "node", "id": 512529079, "lat": 53.4136434, "lon": -2.9134262, "tags": {"addr:city": "Liverpool", "addr:street": "Prescot Road", "amenity": "bank", "brand": "HSBC UK", "brand:wikidata": "Q64767453", "brand:wikipedia": "en:HSBC", "name": "HSBC UK", "website": "https://www.hsbc.co.uk/branch-list/liverpool-old-swan-digital-service-branch/", "wheelchair": "yes"}}, {"type": "node", "id": 533855637, "lat": 53.4138229, "lon": -2.9112148, "tags": {"bus": "yes", "highway": "bus_stop", "name": "PRESCOT RD/OLD SWAN/SMART", "naptan:AtcoCode": "2800S41033A", "naptan:Bearing": "E", "naptan:CommonName": "PRESCOT RD/OLD SWAN/SMART", "naptan:Indicator": "PRESCOT ROAD/OLD SWAN", "naptan:Landmark": "O/S SHOP. 561", "naptan:NaptanCode": "merdawaw", "naptan:Notes": "No Notes", "naptan:PlusbusZoneRef": "LVRPLCH", "naptan:ShortCommonName": "Prescot Rd/Old Swan", "naptan:Street": "PRESCOT ROAD", "naptan:verified": "no", "public_transport": "platform", "source": "naptan_import"}}, {"type": "node", "id": 533855640, "lat": 53.4137762, "lon": -2.9104935, "tags": {"bus": "yes", "departures_board": "timetable", "highway": "bus_stop", "name": "PRESCOT RD/OLD SWAN", "naptan:AtcoCode": "2800S41033B", "naptan:Bearing": "W", "naptan:CommonName": "PRESCOT RD/OLD SWAN", "naptan:Indicator": "PRESCOT ROAD/OLD SWAN", "naptan:Landmark": "O/S SHOP 648 CORNER BELFAST ROAD", "naptan:NaptanCode": "merdawda", "naptan:Notes": "No Notes", "naptan:PlusbusZoneRef": "LVRPLCH", "naptan:ShortCommonName": "Prescot Rd/Old Swan", "naptan:Street": "PRESCOT ROAD", "naptan:verified": "no", "operator": "MerseyTravel", "public_transport": "platform", "shelter": "yes", "source": "naptan_import"}}, {"type": "node", "id": 533855642, "lat": 53.4136441, "lon": -2.9122641, "tags": {"bus": "yes", "highway": "bus_stop", "name": "PRESCOT RD/OLD SWAN", "naptan:AtcoCode": "2800S41033C", "naptan:Bearing": "E", "naptan:CommonName": "PRESCOT RD/OLD SWAN", "naptan:Indicator": "PRESCOT ROAD/OLD SWAN", "naptan:Landmark": "O/S SHOP 543/ CORNER FITZGERALD ROAD", "naptan:NaptanCode": "merdawdg", "naptan:Notes": "No Notes", "naptan:PlusbusZoneRef": "LVRPLCH", "naptan:ShortCommonName": "Prescot Rd/Old Swan", "naptan:Street": "PRESCOT ROAD", "naptan:verified": "no", "public_transport": "platform", "source": "naptan_import"}}, {"type": "node", "id": 533855647, "lat": 53.414152, "lon": -2.9090784, "tags": {"bus": "yes", "highway": "bus_stop", "name": "PRESCOT RD/OLD SWAN", "naptan:AtcoCode": "2800S41033D", "naptan:Bearing": "SW", "naptan:CommonName": "PRESCOT RD/OLD SWAN", "naptan:Indicator": "PRESCOT ROAD/OLD SWAN", "naptan:Landmark": "CORNER MUNSTER ROAD O/S SHOP 668", "naptan:NaptanCode": "merdawdj", "naptan:Notes": "No Notes", "naptan:PlusbusZoneRef": "LVRPLCH", "naptan:ShortCommonName": "Prescot Rd/Old Swan", "naptan:Street": "PRESCOT ROAD", "naptan:verified": "no", "public_transport": "platform", "source": "naptan_import"}}, {"type": "node", "id": 533855668, "lat": 53.4142525, "lon": -2.9141009, "tags": {"bus": "yes", "highway": "bus_stop", "name": "DERBY LANE/OLD SWAN", "naptan:AtcoCode": "2800S41037A", "naptan:Bearing": "S", "naptan:CommonName": "DERBY LANE/OLD SWAN", "naptan:Indicator": "DERBY LANE/PRESCOT ROAD", "naptan:Landmark": "O/S SHOP 16", "naptan:NaptanCode": "merdawgm", "naptan:Notes": "No Notes", "naptan:PlusbusZoneRef": "LVRPLCH", "naptan:ShortCommonName": "Derby Ln/Old Swan", "naptan:Street": "DERBY LANE", "naptan:verified": "no", "public_transport": "platform", "source": "naptan_import"}}, {"type": "node", "id": 533855670, "lat": 53.4142664, "lon": -2.9143179, "tags": {"bus": "yes", "highway": "bus_stop", "name": "DERBY LANE/OLD SWAN", "naptan:AtcoCode": "2800S41037B", "naptan:Bearing": "N", "naptan:CommonName": "DERBY LANE/OLD SWAN", "naptan:Indicator": "DERBY LANE/PRESCOT ROAD", "naptan:Landmark": "OPP SHOP 14 O/S OLD SWAN HOUSING OFFICE", "naptan:NaptanCode": "merdawgp", "naptan:Notes": "No Notes", "naptan:PlusbusZoneRef": "LVRPLCH", "naptan:ShortCommonName": "Derby Ln/Old Swan", "naptan:Street": "DERBY LANE", "naptan:verified": "no", "public_transport": "platform", "source": "naptan_import"}}, {"type": "node", "id": 533856309, "lat": 53.4128379, "lon": -2.9142357, "tags": {"bus": "yes", "departures_board": "timetable", "highway": "bus_stop", "name": "ST OSWALDS STREET/OLD SWAN", "naptan:AtcoCode": "2800S41124A", "naptan:Bearing": "SW", "naptan:CommonName": "ST OSWALDS STREET/OLD SWAN", "naptan:Indicator": "ST OSWALDS STREET/PRESCOT ROAD", "naptan:Landmark": "O/S SHOP 15", "naptan:NaptanCode": "merdgmtd", "naptan:Notes": "No Notes", "naptan:PlusbusZoneRef": "LVRPLCH", "naptan:ShortCommonName": "Old Swan", "naptan:Street": "ST OSWALDS STREET", "naptan:verified": "no", "network": "Arriva", "network:wikidata": "Q680991", "network:wikipedia": "en:Arriva", "operator": "Arriva", "public_transport": "platform", "shelter": "no", "source": "naptan_import"}}, {"type": "node", "id": 533856314, "lat": 53.4127941, "lon": -2.9146678, "tags": {"bus": "yes", "highway": "bus_stop", "name": "Tesco/ST OSWALD STREET", "naptan:AtcoCode": "2800S41124C", "naptan:Bearing": "NE", "naptan:CommonName": "Tesco/ST OSWALD STREET", "naptan:Indicator": "Tesco/ST OSWALD STREET", "naptan:Landmark": "OPPOSITE NO 14", "naptan:NaptanCode": "mergmgdt", "naptan:Notes": "No Notes", "naptan:PlusbusZoneRef": "LVRPLCH", "naptan:ShortCommonName": "St Oswald St Tesco", "naptan:Street": "ST OSWALD STREET", "naptan:verified": "no", "public_transport": "platform", "source": "naptan_import"}}, {"type": "node", "id": 533857861, "lat": 53.4151224, "lon": -2.9069995, "tags": {"bus": "yes", "highway": "bus_stop", "name": "PRESCOT ROAD/BLACK HORSE LANE", "naptan:AtcoCode": "2800S44001A", "naptan:Bearing": "NE", "naptan:CommonName": "PRESCOT ROAD/BLACK HORSE LANE", "naptan:Indicator": "PRESCOT ROAD/QUEENS DRIVE", "naptan:Landmark": "O/S 659 NR BLACK HORSE LANE", "naptan:NaptanCode": "merdmdap", "naptan:Notes": "No Notes", "naptan:PlusbusZoneRef": "LVRPLCH", "naptan:ShortCommonName": "The Black horse", "naptan:Street": "PRESCOT ROAD", "naptan:verified": "no", "public_transport": "platform", "source": "naptan_import"}}, {"type": "node", "id": 533857867, "lat": 53.414888, "lon": -2.9078791, "tags": {"bus": "yes", "highway": "bus_stop", "name": "EAST PRESCOT ROAD/THE BLACK HORSE", "naptan:AtcoCode": "2800S44001B", "naptan:Bearing": "NE", "naptan:CommonName": "EAST PRESCOT ROAD/THE BLACK HORSE", "naptan:Indicator": "PRESCOT ROAD/QUEENS DRIVE", "naptan:Landmark": "NR BLACKHORSE LANE O/S THE BLACK HORSE PH", "naptan:NaptanCode": "merdmdat", "naptan:Notes": "No Notes", "naptan:PlusbusZoneRef": "LVRPLCH", "naptan:ShortCommonName": "The Black Horse", "naptan:Street": "PRESCOT ROAD", "naptan:verified": "no", "public_transport": "platform", "source": "naptan_import"}}, {"type": "node", "id": 533857919, "lat": 53.4150468, "lon": -2.9063058, "tags": {"bus": "yes", "highway": "bus_stop", "name": "PRESCOT ROAD/QUEENS DRIVE", "naptan:AtcoCode": "2800S44001F", "naptan:Bearing": "SW", "naptan:CommonName": "PRESCOT ROAD/QUEENS DRIVE", "naptan:Indicator": "PRESCOT ROAD/QUEENS DRIVE", "naptan:Landmark": "O/S ST BRENDAN'S CHURCH", "naptan:NaptanCode": "merdmdgj", "naptan:Notes": "No Notes", "naptan:PlusbusZoneRef": "LVRPLCH", "naptan:ShortCommonName": "St Brendan's Church", "naptan:Street": "PRESCOT ROAD", "naptan:verified": "no", "public_transport": "platform", "source": "naptan_import"}}, {"type": "node", "id": 533859243, "lat": 53.4127374, "lon": -2.9126645, "tags": {"bus": "yes", "highway": "bus_stop", "name": "Broadgreen Rd/old Swan", "naptan:AtcoCode": "2800S44111B", "naptan:Bearing": "NW", "naptan:CommonName": "Broadgreen Rd/old Swan", "naptan:Indicator": "Broadgreen Road/prescot Road", "naptan:Landmark": "Prescot Road", "naptan:NaptanCode": "merdmtmj", "naptan:Notes": "No Notes", "naptan:PlusbusZoneRef": "LVRPLCH", "naptan:ShortCommonName": "The Old Swan", "naptan:Street": "Broadgreen Road", "naptan:verified": "no", "public_transport": "platform", "source": "naptan_import"}}, {"type": "node", "id": 533859250, "lat": 53.4126387, "lon": -2.9122755, "tags": {"bus": "yes", "highway": "bus_stop", "name": "BROADGREEN RD/OLD SWAN", "naptan:AtcoCode": "2800S44111C", "naptan:Bearing": "SE", "naptan:CommonName": "BROADGREEN RD/OLD SWAN", "naptan:Indicator": "BROADGREEN ROAD/PRESCOT ROAD", "naptan:Landmark": "NR AYLESFOROAD ROAD O/S SHOP 23", "naptan:NaptanCode": "merdmtmp", "naptan:Notes": "No Notes", "naptan:PlusbusZoneRef": "LVRPLCH", "naptan:ShortCommonName": "The Old Swan", "naptan:Street": "BROADGREEN ROAD", "naptan:verified": "no", "public_transport": "platform", "source": "naptan_import"}}, {"type": "node", "id": 1563152867, "lat": 53.4126065, "lon": -2.9120987, "tags": {"addr:street": "Broad Green Road", "shop": "convenience"}}, {"type": "node", "id": 1563152868, "lat": 53.4127378, "lon": -2.9123627, "tags": {"addr:city": "Liverpool", "addr:housenumber": "19", "addr:postcode": "L13 5SD", "addr:street": "Broad Green Road", "amenity": "fast_food", "cuisine": "chinese;noodles", "diet:meat": "yes", "diet:vegetarian": "yes", "drive_through": "no", "fhrs:id": "1434744", "name": "Good Shepherd Noodle Bar & Asia Takeaway", "phone": "+441513635655", "website": "https://goodshepherd-online.co.uk/"}}, {"type": "node", "id": 1563152871, "lat": 53.4130893, "lon": -2.9128606, "tags": {"addr:street": "Broad Green Road", "amenity": "fast_food", "cuisine": "fish_and_chips"}}, {"type": "node", "id": 1563152872, "lat": 53.4130613, "lon": -2.9128023, "tags": {"addr:street": "Broad Green Road", "amenity": "fast_food", "cuisine": "pizza"}}, {"type": "node", "id": 4541017950, "lat": 53.4126229, "lon": -2.9132205}, {"type": "node", "id": 4541017951, "lat": 53.4128147, "lon": -2.9128705}, {"type": "node", "id": 4541017952, "lat": 53.4124728, "lon": -2.9123431}, {"type": "node", "id": 4541017953, "lat": 53.4122587, "lon": -2.9127336}, {"type": "node", "id": 4541017954, "lat": 53.4124167, "lon": -2.9129772}, {"type": "node", "id": 4541017955, "lat": 53.4124389, "lon": -2.9129366}, {"type": "node", "id": 4674936289, "lat": 53.4150709, "lon": -2.9061196}, {"type": "node", "id": 4674936290, "lat": 53.4151518, "lon": -2.9058678}, {"type": "node", "id": 4674936291, "lat": 53.4151111, "lon": -2.9056645}, {"type": "node", "id": 4674936292, "lat": 53.4149954, "lon": -2.9055678}, {"type": "node", "id": 4674936293, "lat": 53.4149126, "lon": -2.9058557}, {"type": "node", "id": 4674936294, "lat": 53.4148227, "lon": -2.905782}, {"type": "node", "id": 4674936295, "lat": 53.4147936, "lon": -2.9058746}, {"type": "node", "id": 4674936296, "lat": 53.4149137, "lon": -2.9059818}, {"type": "node", "id": 4674936299, "lat": 53.4150266, "lon": -2.9060765}, {"type": "node", "id": 4674936300, "lat": 53.41503, "lon": -2.9082701}, {"type": "node", "id": 4674936301, "lat": 53.4148999, "lon": -2.9081445}, {"type": "node", "id": 4674936302, "lat": 53.4150215, "lon": -2.9077899}, {"type": "node", "id": 4674936304, "lat": 53.4150817, "lon": -2.9079982}, {"type": "node", "id": 4674936305, "lat": 53.4150439, "lon": -2.9079618}, {"type": "node", "id": 4674936306, "lat": 53.4149995, "lon": -2.9080912}, {"type": "node", "id": 4674936307, "lat": 53.4150411, "lon": -2.9081313}, {"type": "node", "id": 4674936308, "lat": 53.415026, "lon": -2.9081751}, {"type": "node", "id": 4674936309, "lat": 53.4150535, "lon": -2.9082016}, {"type": "node", "id": 9938830033, "lat": 53.4140731, "lon": -2.9148303, "tags": {"addr:city": "Liverpool", "addr:street": "Prescot Road", "amenity": "bank", "brand": "NatWest", "brand:wikidata": "Q2740021", "name": "NatWest", "website": "https://www.natwest.com/search-results/locator/branch.html?sortcode=601538&name=Old+Swan+Liverpool"}}, {"type": "node", "id": 9938830039, "lat": 53.4131914, "lon": -2.9133806, "tags": {"name": "Fashion Warehouse", "shop": "clothes"}}, {"type": "node", "id": 9938830042, "lat": 53.4133225, "lon": -2.9128468, "tags": {"addr:city": "Liverpool", "addr:street": "Prescot Road", "name": "Daisy Street", "shop": "clothes"}}, {"type": "node", "id": 9938830050, "lat": 53.4134647, "lon": -2.9118528, "tags": {"addr:city": "Liverpool", "addr:street": "Prescot Road", "clothes": "plus_size", "name": "Curves", "shop": "clothes"}}, {"type": "node", "id": 9938830052, "lat": 53.4135064, "lon": -2.911613, "tags": {"addr:city": "Liverpool", "addr:street": "Prescot Road", "amenity": "bank", "brand": "TSB", "brand:wikidata": "Q7671560", "name": "TSB", "note": "triple unit", "website": "https://branches.tsb.co.uk/liverpool/liverpool-old-swan.html"}}, {"type": "node", "id": 9938830055, "lat": 53.4136591, "lon": -2.9106729, "tags": {"addr:city": "Liverpool", "addr:housenumber": "648", "addr:postcode": "L13 5XE", "addr:street": "Prescot Road", "amenity": "restaurant", "cuisine": "pizza;burger;chicken;kebab", "diet:meat": "yes", "name": "Sizzlaz 2", "phone": "+441512541255", "website": "https://sizzlazoldswan.com"}}, {"type": "node", "id": 9938830057, "lat": 53.413683, "lon": -2.9105119, "tags": {"addr:city": "Liverpool", "addr:street": "Prescot Road", "amenity": "bank", "brand": "Nationwide", "brand:wikidata": "Q846735", "check_date": "2024-09-02", "check_date:opening_hours": "2024-09-02", "name": "Nationwide", "opening_hours": "Mo-Tu 09:00-16:30; We 10:00-16:30; Th-Fr 09:00-16:30; Sa 09:00-12:00; Su closed", "phone": "+44 345 266 0751", "website": "https://www.nationwide.co.uk/branches/liverpool/648-prescot-road"}}, {"type": "node", "id": 9938830058, "lat": 53.4137006, "lon": -2.9104154, "tags": {"addr:city": "Liverpool", "addr:housenumber": "648C", "addr:postcode": "L13 5XE", "addr:street": "Prescot Road", "fhrs:id": "1244039", "name": "Go Local", "shop": "convenience", "source:addr": "FHRS Open Data"}}, {"type": "node", "id": 9938830060, "lat": 53.4138925, "lon": -2.9096054, "tags": {"addr:city": "Liverpool", "addr:housenumber": "658", "addr:postcode": "L13 5XE", "addr:street": "Prescot Road", "addr:suburb": "Old Swan", "name": "Satchell Moran", "office": "lawyer", "website": "https://satchellmoransolicitors.com/"}}, {"type": "node", "id": 9938830075, "lat": 53.4137968, "lon": -2.9118084, "tags": {"addr:city": "Liverpool", "addr:housenumber": "549", "addr:postcode": "L13 5UX", "addr:street": "Prescot Road", "amenity": "fast_food", "brand": "Greggs", "brand:wikidata": "Q3403981", "contact:website": "https://www.greggs.co.uk/shop-finder?shop-code=0399", "cuisine": "sandwich;bakery", "fhrs:id": "497112", "name": "Greggs", "source:addr": "FHRS Open Data", "takeaway": "yes"}}, {"type": "node", "id": 9938830076, "lat": 53.4135863, "lon": -2.9114199, "tags": {"addr:city": "Liverpool", "addr:housenumber": "642", "addr:street": "Prescot Road", "amenity": "bank", "brand": "Halifax", "brand:wikidata": "Q3310164", "name": "Halifax", "website": "https://branches.halifax.co.uk/liverpool/642-prescot-road"}}, {"type": "node", "id": 9938830081, "lat": 53.4139251, "lon": -2.9110935, "tags": {"addr:city": "Liverpool", "addr:street": "Prescot Road", "amenity": "fast_food", "name": "Gemelli's", "old_name": "Waterfield's Choice"}}, {"type": "node", "id": 9938830086, "lat": 53.4140675, "lon": -2.9103336, "tags": {"addr:city": "Liverpool", "addr:housenumber": "577", "addr:postcode": "L13 5UX", "addr:street": "Prescot Road", "amenity": "fast_food", "cuisine": "pizza;burger;chicken;american", "diet:halal": "yes", "drive_through": "no", "name": "Freddy's Chicken & Pizza"}}, {"type": "node", "id": 9938830089, "lat": 53.4141149, "lon": -2.9101331, "tags": {"addr:city": "Liverpool", "addr:street": "Prescot Road", "amenity": "fast_food", "cuisine": "fish_and_chips", "name": "Ali Baba Fish and Chips"}}, {"type": "node", "id": 9938830096, "lat": 53.4145815, "lon": -2.9087913, "tags": {"addr:city": "Liverpool", "addr:street": "Prescot Road", "name": "Shush", "shop": "clothes"}}, {"type": "node", "id": 9938830104, "lat": 53.4145575, "lon": -2.907654, "tags": {"addr:city": "Liverpool", "addr:street": "Prescot Road", "amenity": "fast_food", "brand": "Dixy Chicken", "brand:wikidata": "Q5285003", "cuisine": "chicken", "diet:halal": "yes", "name": "Dixy Chicken", "takeaway": "yes"}}, {"type": "node", "id": 10075924572, "lat": 53.4141508, "lon": -2.9091142}, {"type": "node", "id": 10075924573, "lat": 53.4141726, "lon": -2.9090548}, {"type": "node", "id": 10075924574, "lat": 53.4141626, "lon": -2.9090444}, {"type": "node", "id": 10075924575, "lat": 53.4141408, "lon": -2.9091039}, {"type": "node", "id": 10075924576, "lat": 53.4141617, "lon": -2.9090845}, {"type": "node", "id": 10210040494, "lat": 53.4149745, "lon": -2.9060294}, {"type": "node", "id": 11172233274, "lat": 53.4138322, "lon": -2.9102074}, {"type": "node", "id": 11172233275, "lat": 53.4138466, "lon": -2.9101428}, {"type": "node", "id": 11172233276, "lat": 53.4138332, "lon": -2.9101344}, {"type": "node", "id": 11172233277, "lat": 53.4138189, "lon": -2.910199}, {"type": "node", "id": 11172233278, "lat": 53.4137802, "lon": -2.9105286}, {"type": "node", "id": 11172233279, "lat": 53.4137901, "lon": -2.9104617}, {"type": "node", "id": 11172233280, "lat": 53.4137763, "lon": -2.9104559}, {"type": "node", "id": 11172233281, "lat": 53.4137664, "lon": -2.9105228}, {"type": "node", "id": 11172245976, "lat": 53.4136485, "lon": -2.9123086}, {"type": "node", "id": 11172245977, "lat": 53.413661, "lon": -2.9122411}, {"type": "node", "id": 11172245978, "lat": 53.4136489, "lon": -2.9122348}, {"type": "node", "id": 11172245979, "lat": 53.4136364, "lon": -2.9123023}, {"type": "node", "id": 11178752338, "lat": 53.412795, "lon": -2.9129064, "tags": {"entrance": "yes"}}, {"type": "node", "id": 11476758794, "lat": 53.4151204, "lon": -2.9078854}, {"type": "node", "id": 11514154600, "lat": 53.4149325, "lon": -2.905778}, {"type": "way", "id": 458060380, "nodes": [4541017950, 11178752338, 4541017951, 4541017952, 4541017953, 4541017954, 4541017955, 4541017950], "tags": {"addr:city": "Liverpool", "addr:housenumber": "10", "addr:postcode": "L13 5SG", "addr:street": "Broad Green Road", "brand": "Aldi", "brand:wikidata": "Q41171672", "building": "yes", "fhrs:id": "498089", "name": "Aldi", "shop": "supermarket", "website": "https://www.aldi.co.uk/store-finder/l/old-swan/10-broad-green-road/c770"}}, {"type": "way", "id": 473367797, "nodes": [4674936299, 4674936289, 4674936290, 4674936291, 4674936292, 11514154600, 4674936293]}, {"type": "way", "id": 473367799, "nodes": [4674936300, 4674936301, 4674936302, 11476758794, 4674936304, 4674936305, 4674936306, 4674936307, 4674936308, 4674936309, 4674936300], "tags": {"addr:city": "Liverpool", "addr:housenumber": "641", "addr:postcode": "L13 5XD", "addr:street": "Prescot Road", "amenity": "pub", "brand": "Greene King", "brand:wikidata": "Q5564162", "building": "yes", "fhrs:id": "497018", "name": "The Black Horse", "source:addr": "FHRS Open Data", "website": "https://www.greeneking.co.uk/pubs/merseyside/black-horse"}}, {"type": "way", "id": 1100949462, "nodes": [10075924572, 10075924576, 10075924573, 10075924574, 10075924575, 10075924572], "tags": {"amenity": "bus_station", "bus": "yes", "operator": "Merseytravel", "public_transport": "station"}}, {"type": "way", "id": 1205534500, "nodes": [11172233274, 11172233275, 11172233276, 11172233277, 11172233274], "tags": {"amenity": "bus_station", "bus": "yes", "internet_access": "no", "operator": "MerseyTravel", "public_transport": "station"}}, {"type": "way", "id": 1205534501, "nodes": [11172233278, 11172233279, 11172233280, 11172233281, 11172233278], "tags": {"amenity": "bus_station", "bus": "yes", "internet_access": "no", "operator": "MerseyTravel", "public_transport": "station"}}, {"type": "way", "id": 1205535232, "nodes": [11172245976, 11172245977, 11172245978, 11172245979, 11172245976], "tags": {"amenity": "bus_station", "bus": "yes", "public_transport": "station"}}, {"type": "way", "id": 1239428967, "nodes": [4674936293, 4674936294, 4674936295, 4674936296, 10210040494, 4674936299]}, {"type": "relation", "id": 17021263, "members": [{"type": "way", "ref": 473367797, "role": "outer"}, {"type": "way", "ref": 1239428967, "role": "outer"}], "tags": {"addr:city": "Liverpool", "addr:housenumber": "694", "addr:postcode": "L13 5UH", "addr:street": "Queens Drive", "air_conditioning": "yes", "amenity": "pub", "brand": "Wetherspoon", "brand:wikidata": "Q6109362", "building": "yes", "fhrs:id": "497062", "internet_access": "wlan", "name": "The Navigator", "opening_hours": "08:00-11:30", "outdoor_seating": "yes", "smoking": "outside", "type": "multipolygon", "website": "https://www.jdwetherspoon.com/pubs/all-pubs/england/merseyside/the-navigator-stoneycroft", "website:menu": "https://order.jdwetherspoon.com/venue/jdw/2936/menus"}}]}