{"version": 0.6, "generator": "Overpass API 0.7.62.11 87bfad18", "osm3s": {"timestamp_osm_base": "2026-05-18T15:08:18Z", "copyright": "The data included in this document is from www.openstreetmap.org. The data is made available under ODbL."}, "elements": [{"type": "node", "id": 533860469, "lat": 53.3943238, "lon": -2.8755352, "tags": {"bus": "yes", "highway": "bus_stop", "name": "GATEACRE PARK DRIVE", "naptan:AtcoCode": "2800S43117A", "naptan:Bearing": "SE", "naptan:CommonName": "GATEACRE PARK DRIVE", "naptan:Indicator": "GATEACRE PARK DRIVE", "naptan:Landmark": "OPP 42", "naptan:NaptanCode": "merdjwtp", "naptan:Notes": "No Notes", "naptan:PlusbusZoneRef": "LVRPLCH", "naptan:ShortCommonName": "Gateacre Pk Dr", "naptan:Street": "GATEACRE PARK DRIVE", "naptan:verified": "no", "public_transport": "platform", "shelter": "no", "source": "naptan_import"}}, {"type": "node", "id": 533860471, "lat": 53.3911218, "lon": -2.8727811, "tags": {"bus": "yes", "highway": "bus_stop", "name": "GATEACRE PK DR/GRANGE LANE", "naptan:AtcoCode": "2800S43118A", "naptan:Bearing": "S", "naptan:CommonName": "GATEACRE PK DR/GRANGE LANE", "naptan:Indicator": "GATEACRE PARK DRIVE/GRANGE LANE", "naptan:Landmark": "OPP ROCKBOURNE AVENUE OPP `THE BOULEVARD` PH", "naptan:NaptanCode": "merdmada", "naptan:Notes": "No Notes", "naptan:PlusbusZoneRef": "LVRPLCH", "naptan:ShortCommonName": "The Boulevard", "naptan:Street": "GATEACRE PARK DRIVE", "naptan:verified": "no", "public_transport": "platform", "shelter": "yes", "source": "naptan_import"}}, {"type": "node", "id": 533860472, "lat": 53.3926436, "lon": -2.873567, "tags": {"bus": "yes", "highway": "bus_stop", "name": "GATEACRE PARK DRIVE/WALLGATE WAY", "naptan:AtcoCode": "2800S43118B", "naptan:Bearing": "NW", "naptan:CommonName": "GATEACRE PARK DRIVE/WALLGATE WAY", "naptan:Indicator": "GATEACRE PARK DRIVE/WALLGATE WAY", "naptan:Landmark": "O/S 88", "naptan:NaptanCode": "merdmadg", "naptan:Notes": "No Notes", "naptan:PlusbusZoneRef": "LVRPLCH", "naptan:ShortCommonName": "Wallgate Way", "naptan:Street": "GATEACRE PARK DRIVE", "naptan:verified": "no", "public_transport": "platform", "shelter": "yes", "source": "naptan_import"}}, {"type": "node", "id": 1539259261, "lat": 53.3920376, "lon": -2.8723769, "tags": {"old_name": "Gateacre Pharmacy", "shop": "convenience"}}, {"type": "node", "id": 6835760866, "lat": 53.3905902, "lon": -2.872799}, {"type": "node", "id": 6835760867, "lat": 53.3904715, "lon": -2.8728028}, {"type": "node", "id": 6835760868, "lat": 53.3904016, "lon": -2.8726465}, {"type": "node", "id": 6835760869, "lat": 53.3904963, "lon": -2.8724928}, {"type": "node", "id": 6835760870, "lat": 53.3905714, "lon": -2.8726679}, {"type": "node", "id": 6835760871, "lat": 53.390594, "lon": -2.8727662}, {"type": "node", "id": 6835798179, "lat": 53.3914949, "lon": -2.8723793}, {"type": "node", "id": 6835798180, "lat": 53.3910498, "lon": -2.8724125}, {"type": "node", "id": 6835798181, "lat": 53.3910432, "lon": -2.8719618}, {"type": "node", "id": 6835798182, "lat": 53.3911644, "lon": -2.8719618}, {"type": "node", "id": 6835798183, "lat": 53.3911578, "lon": -2.8718657}, {"type": "node", "id": 6835798184, "lat": 53.3912547, "lon": -2.871862}, {"type": "node", "id": 6835833585, "lat": 53.3912547, "lon": -2.8719396}, {"type": "node", "id": 6835833586, "lat": 53.3914883, "lon": -2.8719433}, {"type": "node", "id": 6841770973, "lat": 53.3915968, "lon": -2.8722274, "tags": {"amenity": "fast_food", "brand": "Subway", "brand:wikidata": "Q244457", "brand:wikipedia": "en:Subway (restaurant)", "contact:website": "https://restaurants.subway.com/united-kingdom/en/liverpool/gateacre-park-drive", "cuisine": "sandwich", "name": "Subway", "takeaway": "yes"}}, {"type": "node", "id": 6841770976, "lat": 53.3917859, "lon": -2.8722402, "tags": {"amenity": "pharmacy", "dispensing": "yes", "healthcare": "pharmacy"}}, {"type": "way", "id": 729739681, "nodes": [6835798179, 6835798180, 6835798181, 6835798182, 6835798183, 6835798184, 6835833585, 6835833586, 6835798179], "tags": {"addr:street": "Gateacre Park Drive", "brand": "Aldi", "brand:wikidata": "Q41171672", "building": "yes", "name": "Aldi", "shop": "supermarket", "website": "https://www.aldi.co.uk/store-finder/l/liverpool/gateacre-park-drive/c803"}}, {"type": "way", "id": 729740231, "nodes": [6835760866, 6835760867, 6835760868, 6835760869, 6835760870, 6835760871, 6835760866], "tags": {"addr:city": "Liverpool", "addr:housenumber": "105", "addr:postcode": "L25 1PD", "addr:street": "Gateacre Park Drive", "amenity": "restaurant", "building": "yes", "cuisine": "greek", "name": "Othello's Greek Restaurant", "phone": "+44151 280 7700"}}]}