{"version": 0.6, "generator": "Overpass API 0.7.62.11 87bfad18", "osm3s": {"timestamp_osm_base": "2026-05-18T15:06:15Z", "copyright": "The data included in this document is from www.openstreetmap.org. The data is made available under ODbL."}, "elements": [{"type": "node", "id": 26316468, "lat": 53.3597092, "lon": -2.8550439, "tags": {"addr:city": "Liverpool", "addr:housenumber": "289", "addr:postcode": "L25 0NN", "addr:street": "Speke Road", "amenity": "restaurant", "cuisine": "indian", "fhrs:id": "979398", "name": "The Purple Olive"}}, {"type": "node", "id": 533861373, "lat": 53.3593882, "lon": -2.8554609, "tags": {"bus": "yes", "highway": "bus_stop", "name": "HILLFOOT AVE/HUNTS CROSS", "naptan:AtcoCode": "2800S48016A", "naptan:Bearing": "E", "naptan:CommonName": "HILLFOOT AVE/HUNTS CROSS", "naptan:Indicator": "HILLFOOT AVENUE/HUNTS CROSS HOTEL", "naptan:Landmark": "NR HUNTS CROSS PH", "naptan:NaptanCode": "merdtjap", "naptan:Notes": "No Notes", "naptan:PlusbusZoneRef": "LVRPLCH", "naptan:ShortCommonName": "Hillfoot Av/Hunts X", "naptan:Street": "HILLFOOT AVENUE", "naptan:verified": "no", "public_transport": "platform", "source": "naptan_import"}}, {"type": "node", "id": 533861374, "lat": 53.3599395, "lon": -2.8562666, "tags": {"bus": "yes", "highway": "bus_stop", "name": "SPEKE ROAD/HUNTS CROSS", "naptan:AtcoCode": "2800S48016B", "naptan:Bearing": "N", "naptan:CommonName": "SPEKE ROAD/HUNTS CROSS", "naptan:Indicator": "SPEKE ROAD/HILLFOOT AVENUE", "naptan:Landmark": "NR RAILWAY STATION OPP CORNER ASHTON DRIVE OPP", "naptan:NaptanCode": "merdtjat", "naptan:Notes": "No Notes", "naptan:PlusbusZoneRef": "LVRPLCH", "naptan:ShortCommonName": "Hillfoot Ave", "naptan:Street": "SPEKE ROAD", "naptan:verified": "no", "public_transport": "platform", "source": "naptan_import"}}, {"type": "node", "id": 533861377, "lat": 53.3589161, "lon": -2.85673, "tags": {"bus": "yes", "highway": "bus_stop", "name": "HILLFOOT AVE/HUNTS CROSS", "naptan:AtcoCode": "2800S48016C", "naptan:Bearing": "W", "naptan:CommonName": "HILLFOOT AVE/HUNTS CROSS", "naptan:Indicator": "HILLFOOT AVENUE/SPEKE ROAD", "naptan:Landmark": "O/S SHOP 84 CORNER WOODEND AVENUE", "naptan:NaptanCode": "merdtjaw", "naptan:Notes": "No Notes", "naptan:PlusbusZoneRef": "LVRPLCH", "naptan:ShortCommonName": "Hillfoot Av/Hunts X", "naptan:Street": "HILLFOOT AVENUE", "naptan:verified": "no", "public_transport": "platform", "source": "naptan_import"}}, {"type": "node", "id": 533861380, "lat": 53.3585918, "lon": -2.8555665, "tags": {"bus": "yes", "highway": "bus_stop", "name": "WOODEND AVE/HUNTS CROSS", "naptan:AtcoCode": "2800S48016D", "naptan:Bearing": "S", "naptan:CommonName": "WOODEND AVE/HUNTS CROSS", "naptan:Indicator": "WOODEND AVENUE/HILLFOOT AVENUE", "naptan:Landmark": "BETWEEN S 57/59", "naptan:NaptanCode": "merdtjda", "naptan:Notes": "No Notes", "naptan:PlusbusZoneRef": "LVRPLCH", "naptan:ShortCommonName": "Woodend Av/Hunts X", "naptan:Street": "WOODEND AVENUE", "naptan:verified": "no", "public_transport": "platform", "source": "naptan_import"}}, {"type": "node", "id": 533861383, "lat": 53.359371, "lon": -2.8547106, "tags": {"bus": "yes", "highway": "bus_stop", "name": "HILLFOOT AVENUE/HUNTS CROSS", "naptan:AtcoCode": "2800S48016E", "naptan:Bearing": "W", "naptan:CommonName": "HILLFOOT AVENUE/HUNTS CROSS", "naptan:Indicator": "HILLFOOT AVENUE/HUNTS CROSS HOTEL", "naptan:Landmark": "O/S 112", "naptan:NaptanCode": "merdtjdg", "naptan:Notes": "No Notes", "naptan:PlusbusZoneRef": "LVRPLCH", "naptan:ShortCommonName": "Hillfoot Av/Hunts X", "naptan:Street": "HILLFOOT AVENUE", "naptan:verified": "no", "public_transport": "platform", "source": "naptan_import"}}, {"type": "node", "id": 533861386, "lat": 53.3596359, "lon": -2.8559667, "tags": {"bus": "yes", "highway": "bus_stop", "name": "SPEKE RD/KWIK SAVE", "naptan:AtcoCode": "2800S48016F", "naptan:Bearing": "S", "naptan:CommonName": "SPEKE RD/KWIK SAVE", "naptan:Indicator": "SPEKE RD/ASHTON DRIVE", "naptan:Landmark": "BY KWIK SAVE", "naptan:NaptanCode": "mergmpta", "naptan:Notes": "No Notes", "naptan:PlusbusZoneRef": "LVRPLCH", "naptan:ShortCommonName": "Speke Rd Kwik Save", "naptan:Street": "SPEKE RD", "naptan:verified": "no", "public_transport": "platform", "source": "naptan_import"}}, {"type": "node", "id": 533861388, "lat": 53.360617, "lon": -2.8501673, "tags": {"bus": "yes", "highway": "bus_stop", "name": "HIGHER ROAD/MACKETS LANE", "naptan:AtcoCode": "2800S48017A", "naptan:Bearing": "SW", "naptan:CommonName": "HIGHER ROAD/MACKETS LANE", "naptan:Indicator": "HIGHER ROAD/MACKETS LANE", "naptan:Landmark": "BETWEEN 16/18", "naptan:NaptanCode": "merdtjdj", "naptan:Notes": "No Notes", "naptan:PlusbusZoneRef": "LVRPLCH", "naptan:ShortCommonName": "Hillfoot Ave", "naptan:Street": "HIGHER ROAD", "naptan:verified": "no", "public_transport": "platform", "source": "naptan_import"}}, {"type": "node", "id": 533861391, "lat": 53.3606026, "lon": -2.8509334, "tags": {"bus": "yes", "highway": "bus_stop", "name": "HIGHER ROAD/MACKETS LANE", "naptan:AtcoCode": "2800S48017B", "naptan:Bearing": "NE", "naptan:CommonName": "HIGHER ROAD/MACKETS LANE", "naptan:Indicator": "HIGHER ROAD/MACKETS LANE", "naptan:Landmark": "O/S 5", "naptan:NaptanCode": "merdtjdm", "naptan:Notes": "No Notes", "naptan:PlusbusZoneRef": "LVRPLCH", "naptan:ShortCommonName": "Hillfoot Ave", "naptan:Street": "HIGHER ROAD", "naptan:verified": "no", "public_transport": "platform", "source": "naptan_import"}}, {"type": "node", "id": 533861599, "lat": 53.3618475, "lon": -2.8565934, "tags": {"bus": "yes", "highway": "bus_stop", "name": "SPEKE ROAD/HILLFOOT AVE", "naptan:AtcoCode": "2800S48057A", "naptan:Bearing": "S", "naptan:CommonName": "SPEKE ROAD/HILLFOOT AVE", "naptan:Indicator": "SPEKE ROAD/HILLFOOT AVENUE", "naptan:Landmark": "O/S 243/243A", "naptan:NaptanCode": "merdtmtd", "naptan:Notes": "No Notes", "naptan:PlusbusZoneRef": "LVRPLCH", "naptan:ShortCommonName": "Roskell Rd", "naptan:Street": "SPEKE ROAD", "naptan:verified": "no", "public_transport": "platform", "source": "naptan_import"}}, {"type": "node", "id": 533862388, "lat": 53.3576412, "lon": -2.8552619, "tags": {"bus": "yes", "highway": "bus_stop", "name": "WOODEND AVENUE/HILLFOOT AVENUE", "naptan:AtcoCode": "2800S48172A", "naptan:Bearing": "S", "naptan:CommonName": "WOODEND AVENUE/HILLFOOT AVENUE", "naptan:Indicator": "WOODEND AVENUE/HILLFOOT AVENUE", "naptan:Landmark": "CORNER KINGSTHORNE ROAD", "naptan:NaptanCode": "merdtpjw", "naptan:Notes": "No Notes", "naptan:PlusbusZoneRef": "LVRPLCH", "naptan:ShortCommonName": "Barford Rd", "naptan:Street": "WOODEND AVENUE", "naptan:verified": "no", "public_transport": "platform", "source": "naptan_import"}}, {"type": "node", "id": 1283661180, "lat": 53.3591419, "lon": -2.8551119, "tags": {"amenity": "fast_food", "cuisine": "fish_and_chips", "name": "Hunts Cross Supper Bar"}}, {"type": "node", "id": 1283661181, "lat": 53.3596509, "lon": -2.8557556, "tags": {"addr:city": "Liverpool", "addr:housenumber": "271-273", "addr:postcode": "L25 0NN", "addr:street": "Speke Road", "brand": "Co-op Food", "brand:wikidata": "Q3277439", "brand:wikipedia": "en:Co-op Food", "check_date": "2024-07-15", "check_date:opening_hours": "2024-07-15", "fhrs:id": "979365", "name": "Co-op Food", "opening_hours": "Mo-Su 06:00-22:00", "operator": "The Co-operative Group", "operator:wikidata": "Q117202", "shop": "supermarket", "source:addr:postcode": "code-point_open", "website": "https://www.coop.co.uk/store-finder/L25-0NN/273-speke-road"}}, {"type": "node", "id": 1283661183, "lat": 53.3587993, "lon": -2.856673, "tags": {"addr:city": "Liverpool", "addr:housename": "Frost News Convenience Store", "addr:housenumber": "82-84", "addr:postcode": "L25 0PF", "addr:street": "Hillfoot Avenue", "name": "Frost Premier Convenience Store", "shop": "convenience"}}, {"type": "node", "id": 1283662903, "lat": 53.3597725, "lon": -2.8554218, "tags": {"addr:city": "Liverpool", "addr:housenumber": "285", "addr:postcode": "L25 0NN", "addr:street": "Speke Road", "amenity": "fast_food", "cuisine": "grill;pizza", "fhrs:id": "1244188", "name": "Grill & Flames", "phone": "+44 151 486 8730", "website": "https://www.grillandflames.com/home"}}, {"type": "node", "id": 4796770250, "lat": 53.3607097, "lon": -2.8563931}, {"type": "node", "id": 4796770251, "lat": 53.3609849, "lon": -2.8544985}, {"type": "node", "id": 4796770252, "lat": 53.3609505, "lon": -2.8544866}, {"type": "node", "id": 4796770253, "lat": 53.3606686, "lon": -2.8563776}, {"type": "node", "id": 4796770254, "lat": 53.3605719, "lon": -2.856335}, {"type": "node", "id": 4796770255, "lat": 53.3608454, "lon": -2.8544473}, {"type": "node", "id": 4796770256, "lat": 53.3608027, "lon": -2.8544299}, {"type": "node", "id": 4796770257, "lat": 53.3605292, "lon": -2.8563176}, {"type": "node", "id": 4796770262, "lat": 53.3608145, "lon": -2.8553991}, {"type": "node", "id": 4796770263, "lat": 53.3605094, "lon": -2.8563216}, {"type": "node", "id": 4796770264, "lat": 53.3605428, "lon": -2.8560884}, {"type": "node", "id": 4796770265, "lat": 53.3604365, "lon": -2.8560456}, {"type": "node", "id": 4796770266, "lat": 53.3604031, "lon": -2.8562789}, {"type": "node", "id": 4796770277, "lat": 53.3607333, "lon": -2.8554087, "tags": {"name": "Hunts Cross", "naptan:AtcoCode": "9100HUNTSX", "network": "National Rail", "network:website": "https://www.nationalrail.co.uk/stations/hnx/", "network:wikidata": "Q26334", "operator": "Merseyrail", "public_transport": "station", "railway": "station", "ref:crs": "HNX", "wikidata": "Q1867593", "wikipedia": "en:Hunts Cross railway station"}}, {"type": "node", "id": 4796770296, "lat": 53.3608279, "lon": -2.8544402}, {"type": "node", "id": 4796770297, "lat": 53.3605664, "lon": -2.8560609}, {"type": "node", "id": 5817591729, "lat": 53.358837, "lon": -2.8563316, "tags": {"addr:city": "Liverpool", "addr:housenumber": "90", "addr:postcode": "L25 0PF", "addr:street": "Hillfoot Avenue", "amenity": "fast_food", "cuisine": "chinese;fish_and_chips", "drive_through": "no", "name": "Friendly House", "phone": "+44 151 486 5133", "takeaway": "yes"}}, {"type": "node", "id": 5817600206, "lat": 53.3588441, "lon": -2.8562013, "tags": {"addr:city": "Liverpool", "addr:housenumber": "96", "addr:postcode": "L25 0PF", "addr:street": "Hillfoot Avenue", "name": "Globe Wareing Cropper", "office": "lawyer"}}, {"type": "node", "id": 8901000096, "lat": 53.3609156, "lon": -2.854471}, {"type": "node", "id": 8901000097, "lat": 53.3606339, "lon": -2.8563621}, {"type": "node", "id": 9708066806, "lat": 53.3605912, "lon": -2.8562978, "tags": {"name": "Hunts Cross", "public_transport": "stop_position", "railway": "stop", "ref": "1", "train": "yes"}}, {"type": "node", "id": 9708066807, "lat": 53.3609014, "lon": -2.8544848, "tags": {"name": "Hunts Cross", "public_transport": "stop_position", "railway": "stop", "ref": "2", "train": "yes"}}, {"type": "node", "id": 9708066808, "lat": 53.3607494, "lon": -2.8562478, "tags": {"name": "Hunts Cross", "public_transport": "stop_position", "railway": "stop", "ref": "3", "train": "yes"}}, {"type": "way", "id": 487166637, "nodes": [4796770250, 4796770251, 4796770252, 4796770253, 4796770250], "tags": {"area": "yes", "name": "3", "public_transport": "platform", "railway": "platform", "ref": "3", "shelter": "yes"}}, {"type": "way", "id": 487166638, "nodes": [4796770254, 4796770255, 4796770296, 4796770256, 4796770297, 4796770257, 4796770254], "tags": {"area": "yes", "name": "1", "public_transport": "platform", "railway": "platform", "ref": "1"}}, {"type": "way", "id": 487166642, "nodes": [4796770263, 4796770264, 4796770265, 4796770266, 4796770263], "tags": {"amenity": "pub", "building": "yes", "name": "The Waiting Room"}}, {"type": "way", "id": 962254834, "nodes": [4796770253, 4796770262, 4796770252, 8901000096, 8901000097, 4796770253], "tags": {"area": "yes", "name": "2", "public_transport": "platform", "railway": "platform", "ref": "2", "shelter": "yes"}}, {"type": "relation", "id": 14097190, "members": [{"type": "node", "ref": 4796770277, "role": ""}, {"type": "way", "ref": 487166638, "role": "platform"}, {"type": "way", "ref": 962254834, "role": "platform"}, {"type": "way", "ref": 487166637, "role": "platform"}, {"type": "node", "ref": 9708066806, "role": "stop"}, {"type": "node", "ref": 9708066807, "role": "stop"}, {"type": "node", "ref": 9708066808, "role": "stop"}], "tags": {"name": "Hunts Cross", "public_transport": "stop_area", "ref": "Hunts Cross", "type": "public_transport", "uic_name": "Hunts Cross", "uic_ref": "7022350"}}]}