{"version": 0.6, "generator": "Overpass API 0.7.62.11 87bfad18", "osm3s": {"timestamp_osm_base": "2026-05-18T14:59:15Z", "copyright": "The data included in this document is from www.openstreetmap.org. The data is made available under ODbL."}, "elements": [{"type": "node", "id": 136943415, "lat": 53.4058122, "lon": -2.9648465, "tags": {"amenity": "pub", "name": "The Augustus John"}}, {"type": "node", "id": 348092273, "lat": 53.402922, "lon": -2.9693249, "tags": {"amenity": "restaurant", "check_date": "2026-05-02", "name": "Everyman Bistro"}}, {"type": "node", "id": 533856731, "lat": 53.4076255, "lon": -2.9642567, "tags": {"bus": "yes", "highway": "bus_stop", "name": "CROWN ST/SMART STOP", "naptan:AtcoCode": "2800S42039A", "naptan:Bearing": "SE", "naptan:CommonName": "CROWN ST/SMART STOP", "naptan:Indicator": "CROWN STREET/WEST DERBY STREET", "naptan:Landmark": "OPP LIVERPOOL UNIVERSITY BUILDINGS", "naptan:NaptanCode": "merdjamj", "naptan:Notes": "No Notes", "naptan:PlusbusZoneRef": "LVRPLCH", "naptan:ShortCommonName": "Crown St/Smart Stop", "naptan:Street": "CROWN STREET", "naptan:verified": "no", "public_transport": "platform", "source": "naptan_import"}}, {"type": "node", "id": 533856736, "lat": 53.4073633, "lon": -2.9642352, "tags": {"bus": "yes", "highway": "bus_stop", "name": "Crown St/smart Stop", "naptan:AtcoCode": "2800S42039B", "naptan:Bearing": "NW", "naptan:CommonName": "Crown St/smart Stop", "naptan:Indicator": "Crown Street/west Derby Street", "naptan:Landmark": "Nr Royal William Ph", "naptan:NaptanCode": "merdjamp", "naptan:Notes": "No Notes", "naptan:PlusbusZoneRef": "LVRPLCH", "naptan:ShortCommonName": "Crown St/smart Stop", "naptan:Street": "Crown Street", "naptan:verified": "no", "public_transport": "platform", "source": "naptan_import"}}, {"type": "node", "id": 533856738, "lat": 53.407901, "lon": -2.9630369, "tags": {"bus": "yes", "highway": "bus_stop", "name": "WEST DERBY STREET/CROWN STREET", "naptan:AtcoCode": "2800S42039C", "naptan:Bearing": "SE", "naptan:CommonName": "WEST DERBY STREET/CROWN STREET", "naptan:Indicator": "WEST DERBY STREET/PEMBROKE ROAD", "naptan:Landmark": "OPP CROWN STREET O/S REAR ENTRANCE TO ROYAL LPL", "naptan:NaptanCode": "merdjamt", "naptan:Notes": "No Notes", "naptan:PlusbusZoneRef": "LVRPLCH", "naptan:ShortCommonName": "W Derby St/Crown St", "naptan:Street": "WEST DERBY STREET", "naptan:verified": "no", "public_transport": "platform", "source": "naptan_import"}}, {"type": "node", "id": 533856739, "lat": 53.407827, "lon": -2.9631398, "tags": {"bus": "yes", "highway": "bus_stop", "name": "WEST DERBY STREET/CROWN STREET", "naptan:AtcoCode": "2800S42039E", "naptan:Bearing": "NW", "naptan:CommonName": "Crown Street", "naptan:Indicator": "Stop B", "naptan:Landmark": "OPP ROYAL LIVERPOOL HOSPITAL CAR PARK", "naptan:NaptanCode": "merdjamw", "naptan:Notes": "No Notes", "naptan:PlusbusZoneRef": "LVRPLCH", "naptan:ShortCommonName": "W Derby St/Crown St", "naptan:Street": "West Derby Street", "naptan:verified": "no", "public_transport": "platform", "source": "naptan_import"}}, {"type": "node", "id": 533856742, "lat": 53.4061097, "lon": -2.9636773, "tags": {"bench": "yes", "bin": "no", "bus": "yes", "highway": "bus_stop", "lit": "yes", "name": "BROWNLOW HILL/SMITHDOWN LANE", "naptan:AtcoCode": "2800S42040B", "naptan:Bearing": "W", "naptan:CommonName": "BROWNLOW HILL/SMITHDOWN LANE", "naptan:Indicator": "BROWNLOW HILL/SMITHDOWN LANE", "naptan:Landmark": "O/S LPL UNI. DEPT. VETERINARY PATHOLOGY GOODS EN", "naptan:NaptanCode": "merdjapd", "naptan:Notes": "No Notes", "naptan:PlusbusZoneRef": "LVRPLCH", "naptan:ShortCommonName": "Crown Street", "naptan:Street": "BROWNLOW HILL", "naptan:verified": "no", "public_transport": "platform", "shelter": "yes", "source": "naptan_import", "tactile_paving": "yes"}}, {"type": "node", "id": 533856756, "lat": 53.403788, "lon": -2.9684302, "tags": {"bench": "yes", "bin": "no", "bus": "yes", "highway": "bus_stop", "lit": "yes", "name": "MOUNT PLEASANT/CATHEDRAL", "naptan:AtcoCode": "2800S42048A", "naptan:Bearing": "NE", "naptan:CommonName": "MOUNT PLEASANT/CATHEDRAL", "naptan:Indicator": "MOUNT PLEASANT/HOPE STREET", "naptan:Landmark": "O/S CATHEDRAL", "naptan:NaptanCode": "merdjawj", "naptan:Notes": "No Notes", "naptan:PlusbusZoneRef": "LVRPLCH", "naptan:ShortCommonName": "R.C Cathedral", "naptan:Street": "MOUNT PLEASANT", "naptan:verified": "no", "public_transport": "platform", "shelter": "yes", "source": "naptan_import", "tactile_paving": "no"}}, {"type": "node", "id": 533856757, "lat": 53.4033844, "lon": -2.9686696, "tags": {"bench": "yes", "bin": "yes", "bus": "yes", "highway": "bus_stop", "lit": "yes", "name": "OXFORD STREET/HOSPITAL", "naptan:AtcoCode": "2800S42048B", "naptan:Bearing": "W", "naptan:CommonName": "OXFORD STREET/HOSPITAL", "naptan:Indicator": "OXFORD STREET/BROWNLOW HILL", "naptan:Landmark": "O/S LIVERPOOL MATERNITY HOSP CORNER CAMBRDIGE S", "naptan:NaptanCode": "merdjawm", "naptan:Notes": "No Notes", "naptan:PlusbusZoneRef": "LVRPLCH", "naptan:ShortCommonName": "Oxford St/Hosp", "naptan:Street": "OXFORD STREET", "naptan:verified": "no", "public_transport": "platform", "shelter": "yes", "source": "naptan_import"}}, {"type": "node", "id": 533856758, "lat": 53.4034427, "lon": -2.9675582, "tags": {"bench": "yes", "bin": "no", "bus": "yes", "highway": "bus_stop", "lit": "yes", "name": "Oxford Street/Mount Pleasant", "naptan:AtcoCode": "2800S42048C", "naptan:Bearing": "E", "naptan:CommonName": "OXFORD STREET/BANK", "naptan:Indicator": "OXFORD STREET/ABERCROMBY SQUARE", "naptan:Landmark": "O/S MIDLAND BANK AND NATWEST BANK", "naptan:NaptanCode": "merdjawp", "naptan:Notes": "No Notes", "naptan:PlusbusZoneRef": "LVRPLCH", "naptan:ShortCommonName": "Oxford St/Bank", "naptan:Street": "OXFORD STREET", "naptan:verified": "yes", "public_transport": "platform", "route_ref": "699", "shelter": "yes", "source": "naptan_import"}}, {"type": "node", "id": 533856761, "lat": 53.4033066, "lon": -2.9649625, "tags": {"bench": "yes", "bin": "no", "bus": "yes", "covered": "no", "highway": "bus_stop", "lit": "yes", "name": "Abercromby Square/Bedford Street North", "naptan:AtcoCode": "2800S42049A", "naptan:Bearing": "E", "naptan:CommonName": "LIVERPOOL UNIVERISTY/ABERCROMBY SQ/OXFORD ST", "naptan:Indicator": "ABERCROMBY SQUARE/OXFORD STREET", "naptan:Landmark": "O/S 33", "naptan:NaptanCode": "merdjawt", "naptan:Notes": "No Notes", "naptan:PlusbusZoneRef": "LVRPLCH", "naptan:ShortCommonName": "Liverpool Uni", "naptan:Street": "ABERCROMBY SQUARE", "naptan:verified": "yes", "public_transport": "platform", "shelter": "yes", "source": "naptan_import", "tactile_paving": "no"}}, {"type": "node", "id": 533856762, "lat": 53.4031836, "lon": -2.9648358, "tags": {"bench": "yes", "bin": "no", "bus": "yes", "covered": "no", "highway": "bus_stop", "lit": "yes", "name": "Abercromby Square opposite Bedford Street North", "naptan:AtcoCode": "2800S42049B", "naptan:Bearing": "W", "naptan:CommonName": "LIVERPOOL UNIVERSITY/ABERCROMBY SQ/OXFORD ST", "naptan:Indicator": "ABERCROMBY SQUARE/OXFORD STREET", "naptan:Landmark": "NR LIVERPOOL UNIVERSITY", "naptan:NaptanCode": "merdjdad", "naptan:Notes": "No Notes", "naptan:PlusbusZoneRef": "LVRPLCH", "naptan:ShortCommonName": "Liverpool Uni", "naptan:Street": "ABERCROMBY SQUARE", "naptan:verified": "yes", "public_transport": "platform", "shelter": "yes", "source": "naptan_import", "tactile_paving": "no"}}, {"type": "node", "id": 533856773, "lat": 53.4056612, "lon": -2.9714032, "tags": {"bench": "yes", "bin": "no", "bus": "yes", "highway": "bus_stop", "lit": "yes", "name": "BROWNLOW HILL/ST ANDREWS STREET", "naptan:AtcoCode": "2800S42052B", "naptan:Bearing": "E", "naptan:CommonName": "BROWNLOW HILL/ST ANDREWS STREET", "naptan:Indicator": "BROWNLOW HILL/ST ANDREWS STREET", "naptan:Landmark": "OPP DUCKINFIELD STREET", "naptan:NaptanCode": "merdjdga", "naptan:Notes": "No Notes", "naptan:PlusbusZoneRef": "LVRPLCH", "naptan:ShortCommonName": "Russell Street", "naptan:Street": "BROWNLOW HILL", "naptan:verified": "no", "public_transport": "platform", "shelter": "yes", "source": "naptan_import", "tactile_paving": "no"}}, {"type": "node", "id": 533856780, "lat": 53.4059688, "lon": -2.9676972, "tags": {"bench": "yes", "bin": "no", "bus": "yes", "highway": "bus_stop", "lit": "yes", "name": "BROWNLOW HILL/MOUNT PLEASANT", "naptan:AtcoCode": "2800S42053A", "naptan:Bearing": "E", "naptan:CommonName": "BROWNLOW HILL/MOUNT PLEASANT", "naptan:Indicator": "BROWNLOW HILL/MOUNT PLEASANT", "naptan:Landmark": "OPP RC CATHEDRAL NR LPL UNI. DEPT. MECHANICAL E", "naptan:NaptanCode": "merdjdgd", "naptan:Notes": "No Notes", "naptan:PlusbusZoneRef": "LVRPLCH", "naptan:ShortCommonName": "University", "naptan:Street": "BROWNLOW HILL", "naptan:verified": "no", "public_transport": "platform", "shelter": "yes", "source": "naptan_import"}}, {"type": "node", "id": 533856782, "lat": 53.4057782, "lon": -2.9686277, "tags": {"bench": "yes", "bin": "no", "bus": "yes", "highway": "bus_stop", "lit": "yes", "name": "BROWNLOW HILL/MOUNT PLEASANT", "naptan:AtcoCode": "2800S42053B", "naptan:Bearing": "W", "naptan:CommonName": "BROWNLOW HILL/MOUNT PLEASANT", "naptan:Indicator": "BROWNLOW HILL/MOUNT PLEASANT", "naptan:Landmark": "O/S ARCHDIOCESE OF LPL OPP UNI. DEPT MECHANICAL", "naptan:NaptanCode": "merdjdgj", "naptan:Notes": "No Notes", "naptan:PlusbusZoneRef": "LVRPLCH", "naptan:ShortCommonName": "University", "naptan:Street": "BROWNLOW HILL", "naptan:verified": "no", "public_transport": "platform", "shelter": "yes", "source": "naptan_import", "tactile_paving": "no"}}, {"type": "node", "id": 533856784, "lat": 53.4051983, "lon": -2.966778, "tags": {"bus": "yes", "highway": "bus_stop", "name": "MOUNT PLEASANT/MOUNTFORD HALL", "naptan:AtcoCode": "2800S42053C", "naptan:Bearing": "NE", "naptan:CommonName": "MOUNT PLEASANT/MOUNTFORD HALL", "naptan:Indicator": "MOUNT PLEASANT/BROWNLOW HILL", "naptan:Landmark": "O/S CATHEDRAL CRYPT OPP MOUNTFORD HALL", "naptan:NaptanCode": "merdjdgm", "naptan:Notes": "No Notes", "naptan:PlusbusZoneRef": "LVRPLCH", "naptan:ShortCommonName": "Mountford Hall", "naptan:Street": "MOUNT PLEASANT", "naptan:verified": "no", "public_transport": "platform", "source": "naptan_import"}}, {"type": "node", "id": 533856786, "lat": 53.4055962, "lon": -2.9662354, "tags": {"bench": "yes", "bin": "yes", "bus": "yes", "highway": "bus_stop", "lit": "yes", "name": "MOUNT PLEASANT/MOUNTFORD HALL", "naptan:AtcoCode": "2800S42053D", "naptan:Bearing": "SW", "naptan:CommonName": "MOUNT PLEASANT/MOUNTFORD HALL", "naptan:Indicator": "MOUNT PLEASANT/BROWNLOW HILL", "naptan:Landmark": "OPP CATHEDRAL 1 OF 2 0/S STUDENTS UNION MOUNTFOR", "naptan:NaptanCode": "merdjdgp", "naptan:Notes": "No Notes", "naptan:PlusbusZoneRef": "LVRPLCH", "naptan:ShortCommonName": "Mountford Hall", "naptan:Street": "MOUNT PLEASANT", "naptan:verified": "no", "public_transport": "platform", "shelter": "yes", "source": "naptan_import"}}, {"type": "node", "id": 533856788, "lat": 53.4054754, "lon": -2.9663406, "tags": {"bench": "yes", "bin": "no", "bus": "yes", "highway": "bus_stop", "lit": "yes", "name": "MOUNT PLEASANT/MOUNTFORD HALL", "naptan:AtcoCode": "2800S42053E", "naptan:Bearing": "SW", "naptan:CommonName": "MOUNT PLEASANT/MOUNTFORD HALL", "naptan:Indicator": "MOUNT PLEASANT/BROWNLOW HILL", "naptan:Landmark": "OPP CATHEDRAL O/S STUDENTS UNION MOUNTFORD HALL", "naptan:NaptanCode": "merdjdgt", "naptan:Notes": "No Notes", "naptan:PlusbusZoneRef": "LVRPLCH", "naptan:ShortCommonName": "Mountford Hall", "naptan:Street": "MOUNT PLEASANT", "naptan:verified": "no", "public_transport": "platform", "shelter": "yes", "source": "naptan_import"}}, {"type": "node", "id": 567421344, "lat": 53.4031595, "lon": -2.9683283, "tags": {"amenity": "pub", "name": "The Font"}}, {"type": "node", "id": 2646312424, "lat": 53.4057783, "lon": -2.9675806, "tags": {"brand": "Tesco Express", "brand:wikidata": "Q98456772", "brand:wikipedia": "en:Tesco", "contact:website": "https://www.tesco.com/store-locator/liverpool/6-10-the-foundation", "name": "Tesco Express", "shop": "convenience"}}, {"type": "node", "id": 2646312425, "lat": 53.4058056, "lon": -2.9672186, "tags": {"amenity": "fast_food", "brand": "Greggs", "brand:wikidata": "Q3403981", "cuisine": "sandwich;bakery", "name": "Greggs", "opening_hours": "Mo-Fr 06:00-19:00; Sa 07:30-16:00", "takeaway": "yes"}}, {"type": "node", "id": 2820132198, "lat": 53.4060074, "lon": -2.9647218, "tags": {"level": "0", "name": "Life Express", "shop": "convenience", "wheelchair": "yes"}}, {"type": "node", "id": 3964649957, "lat": 53.4078259, "lon": -2.9690897}, {"type": "node", "id": 3964649958, "lat": 53.4078115, "lon": -2.9688322}, {"type": "node", "id": 3964649959, "lat": 53.407407, "lon": -2.9688832}, {"type": "node", "id": 3964649960, "lat": 53.407423, "lon": -2.9691567}, {"type": "node", "id": 4112993329, "lat": 53.4050279, "lon": -2.9664342, "tags": {"amenity": "pub", "name": "The Sphinx", "real_ale": "yes"}}, {"type": "node", "id": 4314148276, "lat": 53.4032096, "lon": -2.9673505}, {"type": "node", "id": 4314148277, "lat": 53.4032138, "lon": -2.9674423}, {"type": "node", "id": 4314148278, "lat": 53.403218, "lon": -2.967534}, {"type": "node", "id": 4314148281, "lat": 53.4033019, "lon": -2.9673408}, {"type": "node", "id": 4314148282, "lat": 53.4033061, "lon": -2.967432}, {"type": "node", "id": 4314148283, "lat": 53.4033102, "lon": -2.9675232}, {"type": "node", "id": 4417944959, "lat": 53.4052245, "lon": -2.9664117, "tags": {"name": "UoL Guild Shop", "opening_hours": "Mo-Fr 08:30-18:00; Sa 09:30-16:00; Su 09:30-16:00", "shop": "convenience"}}, {"type": "node", "id": 8004873007, "lat": 53.4035261, "lon": -2.9713469, "tags": {"name": "John Moores Students' Union (JMSU) - LJMU", "office": "yes"}}, {"type": "node", "id": 8771747279, "lat": 53.4060357, "lon": -2.9641734, "tags": {"addr:housename": "Unit 1 Crown Place", "addr:street": "Brownlow Hill", "amenity": "fast_food", "brand": "Subway", "brand:wikidata": "Q244457", "brand:wikipedia": "en:Subway (restaurant)", "contact:website": "https://restaurants.subway.com/united-kingdom/en/liverpool/crown-place5-peach-street", "cuisine": "sandwich", "name": "Subway", "phone": "+44 151 707 3613", "takeaway": "yes"}}, {"type": "node", "id": 10157380229, "lat": 53.4035108, "lon": -2.9676054, "tags": {"level": "0", "name": "Liverpool Student Homes", "office": "estate_agent", "opening_hours": "Mo-Fr 09:00-16:30", "wheelchair": "yes"}}, {"type": "node", "id": 11235618475, "lat": 53.4058163, "lon": -2.9671306, "tags": {"amenity": "fast_food", "brand": "Subway", "brand:wikidata": "Q244457", "cuisine": "sandwich", "name": "Subway", "takeaway": "yes"}}, {"type": "node", "id": 11365433570, "lat": 53.4049936, "lon": -2.9662558, "tags": {"amenity": "fast_food", "fast_food": "cafeteria", "name": "The Courtyard"}}, {"type": "way", "id": 393253538, "nodes": [3964649957, 3964649958, 3964649959, 3964649960, 3964649957], "tags": {"addr:city": "Liverpool", "addr:housename": "Joseph Proudman Building", "addr:housenumber": "6", "addr:postcode": "L3 5DA", "addr:street": "Brownlow Street", "building": "yes", "check_date": "2025-02-21", "name": "The National Oceanography Centre", "office": "research", "website": "https://noc.ac.uk/", "wikidata": "Q7252248", "wikipedia": "en:Proudman Oceanographic Laboratory"}}, {"type": "way", "id": 432340342, "nodes": [4314148282, 4314148283, 4314148278, 4314148277, 4314148282], "tags": {"addr:city": "Liverpool", "addr:housenumber": "18", "addr:street": "Oxford Street", "building": "house", "name": "UNITE Liverpool University branch", "office": "union", "source:geometry": "Bing 2012", "wheelchair": "no"}}, {"type": "way", "id": 432340343, "nodes": [4314148281, 4314148282, 4314148277, 4314148276, 4314148281], "tags": {"addr:city": "Liverpool", "addr:housenumber": "20", "addr:street": "Oxford Street", "building": "house", "name": "University of Liverpool UCU", "office": "union", "source:geometry": "Bing 2012", "wheelchair": "no"}}]}