{"version": 0.6, "generator": "Overpass API 0.7.62.11 87bfad18", "osm3s": {"timestamp_osm_base": "2026-05-18T15:04:15Z", "copyright": "The data included in this document is from www.openstreetmap.org. The data is made available under ODbL."}, "elements": [{"type": "node", "id": 240115990, "lat": 53.3892964, "lon": -2.9188591, "tags": {"amenity": "pub", "name": "Fogherty's"}}, {"type": "node", "id": 293654602, "lat": 53.3895574, "lon": -2.9146853, "tags": {"addr:city": "Liverpool", "addr:housenumber": "1", "addr:postcode": "L15 9EA", "addr:street": "Church Road", "amenity": "restaurant", "fhrs:id": "496263", "name": "Spire", "source:addr": "FHRS Open Data"}}, {"type": "node", "id": 533857513, "lat": 53.3891382, "lon": -2.9148076, "tags": {"bus": "yes", "highway": "bus_stop", "name": "PENNY LANE/THE TAVERN", "naptan:AtcoCode": "2800S43017A", "naptan:Bearing": "W", "naptan:CommonName": "PENNY LANE/THE TAVERN", "naptan:Indicator": "PENNY LANE", "naptan:Landmark": "O/S PUBLIC TOILETS", "naptan:NaptanCode": "mergmjdj", "naptan:Notes": "No Notes", "naptan:PlusbusZoneRef": "LVRPLCH", "naptan:ShortCommonName": "The Tavern", "naptan:Street": "PENNY LANE", "naptan:verified": "no", "public_transport": "platform", "source": "naptan_import"}}, {"type": "node", "id": 533857515, "lat": 53.3892566, "lon": -2.9145996, "tags": {"bus": "yes", "highway": "bus_stop", "name": "PENNY LANE/SMITHDOWN PLACE", "naptan:AtcoCode": "2800S43017B", "naptan:Bearing": "W", "naptan:CommonName": "PENNY LANE/SMITHDOWN PLACE", "naptan:Indicator": "PENNY LANE", "naptan:Landmark": "O/S TAXI RANK (MIDDLE OF ROAD)", "naptan:NaptanCode": "mergmjdm", "naptan:Notes": "No Notes", "naptan:PlusbusZoneRef": "LVRPLCH", "naptan:ShortCommonName": "Penny Lane", "naptan:Street": "PENNY LANE", "naptan:verified": "no", "public_transport": "platform", "source": "naptan_import"}}, {"type": "node", "id": 533857518, "lat": 53.3897417, "lon": -2.9146401, "tags": {"bus": "yes", "departures_board": "timetable", "highway": "bus_stop", "name": "PENNY LANE/SMITHDOWN PLACE", "naptan:AtcoCode": "2800S43017C", "naptan:Bearing": "N", "naptan:CommonName": "PENNY LANE/SMITHDOWN PLACE", "naptan:Indicator": "CHURCH ROAD O/S 9/HEATHFIELD ROAD", "naptan:Landmark": "NR SMITHDOWN PLACE", "naptan:NaptanCode": "merdjgjw", "naptan:Notes": "No Notes", "naptan:PlusbusZoneRef": "LVRPLCH", "naptan:ShortCommonName": "Smithdown Place", "naptan:Street": "CHURCH ROAD O", "naptan:verified": "no", "network": "MerseyTravel", "operator": "network=Arriva", "public_transport": "platform", "ref": "430170", "shelter": "no", "source": "naptan_import;local knowledge"}}, {"type": "node", "id": 533857520, "lat": 53.3885661, "lon": -2.9132165, "tags": {"bench": "yes", "bin": "yes", "bus": "yes", "highway": "bus_stop", "lit": "yes", "name": "ALLERTON RD/PENNY LN", "naptan:AtcoCode": "2800S43017D", "naptan:Bearing": "W", "naptan:CommonName": "ALLERTON RD/PENNY LN", "naptan:Indicator": "PENNY LANE", "naptan:Landmark": "O/S 34 (BURKE EDWARDS SOLICITORS)", "naptan:NaptanCode": "merdjgma", "naptan:Notes": "No Notes", "naptan:PlusbusZoneRef": "LVRPLCH", "naptan:ShortCommonName": "Heathfield Rd", "naptan:Street": "PENNY LANE", "naptan:verified": "no", "public_transport": "platform", "shelter": "yes", "source": "naptan_import"}}, {"type": "node", "id": 533857521, "lat": 53.3888856, "lon": -2.9137496, "tags": {"bench": "yes", "bin": "yes", "bus": "yes", "highway": "bus_stop", "lit": "yes", "name": "ALLERTON RD/PENNY LN", "naptan:AtcoCode": "2800S43017E", "naptan:Bearing": "E", "naptan:CommonName": "ALLERTON RD/PENNY LN", "naptan:Indicator": "PENNY LANE", "naptan:Landmark": "O/S 1A", "naptan:NaptanCode": "merdjgmd", "naptan:Notes": "No Notes", "naptan:PlusbusZoneRef": "LVRPLCH", "naptan:ShortCommonName": "Penny Ln", "naptan:Street": "PENNY LANE", "naptan:verified": "no", "public_transport": "platform", "shelter": "yes", "source": "naptan_import"}}, {"type": "node", "id": 533857522, "lat": 53.3888336, "lon": -2.9134929, "tags": {"bus": "yes", "highway": "bus_stop", "name": "ALLERTON RD/PENNY LN", "naptan:AtcoCode": "2800S43017F", "naptan:Bearing": "E", "naptan:CommonName": "ALLERTON RD/PENNY LN", "naptan:Indicator": "PENNY LANE", "naptan:Landmark": "O/S 3/5 (ROBERTS EDWARDS WORRAL ESTATE AGENTS)", "naptan:NaptanCode": "merdjgmg", "naptan:Notes": "No Notes", "naptan:PlusbusZoneRef": "LVRPLCH", "naptan:ShortCommonName": "Penny Ln", "naptan:Street": "PENNY LANE", "naptan:verified": "no", "public_transport": "platform", "source": "naptan_import"}}, {"type": "node", "id": 533857525, "lat": 53.3895108, "lon": -2.9142743, "tags": {"bus": "yes", "highway": "bus_stop", "name": "PENNY LANE/HEATHFIELD RD", "naptan:AtcoCode": "2800S43017G", "naptan:Bearing": "SW", "naptan:CommonName": "PENNY LANE/HEATHFIELD RD", "naptan:Indicator": "PENNY LANE", "naptan:Landmark": "O/S CHURCH OF WALES", "naptan:NaptanCode": "merdjgmj", "naptan:Notes": "No Notes", "naptan:PlusbusZoneRef": "LVRPLCH", "naptan:ShortCommonName": "Heathfield Rd", "naptan:Street": "PENNY LANE", "naptan:verified": "no", "public_transport": "platform", "source": "naptan_import"}}, {"type": "node", "id": 533857527, "lat": 53.3899177, "lon": -2.9139672, "tags": {"bus": "yes", "highway": "bus_stop", "name": "PENNY LANE/HEATHFIELD RD", "naptan:AtcoCode": "2800S43017H", "naptan:Bearing": "SW", "naptan:CommonName": "PENNY LANE/HEATHFIELD RD", "naptan:Indicator": "PENNY LANE", "naptan:Landmark": "OPP AUKLAND ROAD", "naptan:NaptanCode": "merdjgmp", "naptan:Notes": "No Notes", "naptan:PlusbusZoneRef": "LVRPLCH", "naptan:ShortCommonName": "Heathfield Rd", "naptan:Street": "PENNY LANE", "naptan:verified": "no", "public_transport": "platform", "source": "naptan_import"}}, {"type": "node", "id": 533857635, "lat": 53.3889942, "lon": -2.9171653, "tags": {"bench": "yes", "bin": "no", "bus": "yes", "highway": "bus_stop", "lit": "yes", "name": "SMITHDOWN ROAD/CALTON AVE", "naptan:AtcoCode": "2800S43037A", "naptan:Bearing": "E", "naptan:CommonName": "SMITHDOWN ROAD/CALTON AVE", "naptan:Indicator": "SMITHDOWN ROAD/ALLERTON ROAD", "naptan:Landmark": "OTUSIDE PENNY LANE BRANCH POST OFFICE NR THRESH", "naptan:NaptanCode": "merdjmjp", "naptan:Notes": "No Notes", "naptan:PlusbusZoneRef": "LVRPLCH", "naptan:ShortCommonName": "S'Down Rd/Calton Av", "naptan:Street": "SMITHDOWN ROAD", "naptan:verified": "no", "public_transport": "platform", "shelter": "yes", "source": "naptan_import"}}, {"type": "node", "id": 533860479, "lat": 53.3859467, "lon": -2.9136716, "tags": {"bench": "no", "bin": "no", "bus": "yes", "highway": "bus_stop", "lit": "yes", "name": "QUEENS DRIVE/ALLERTON RD", "naptan:AtcoCode": "2800S43121A", "naptan:Bearing": "SW", "naptan:CommonName": "QUEENS DRIVE/ALLERTON RD", "naptan:Indicator": "QUEENS DRIVE/ALLERTON ROAD", "naptan:Landmark": "ELM HALL DRIVE O/S 105", "naptan:NaptanCode": "merdmadw", "naptan:Notes": "No Notes", "naptan:PlusbusZoneRef": "LVRPLCH", "naptan:ShortCommonName": "Allerton Rd", "naptan:Street": "QUEENS DRIVE", "naptan:verified": "no", "public_transport": "platform", "shelter": "no", "source": "naptan_import"}}, {"type": "node", "id": 533860481, "lat": 53.3867564, "lon": -2.9124109, "tags": {"bench": "no", "bin": "no", "bus": "yes", "highway": "bus_stop", "lit": "yes", "name": "QUEENS DRIVE/ALLERTON RD", "naptan:AtcoCode": "2800S43121B", "naptan:Bearing": "NE", "naptan:CommonName": "QUEENS DRIVE/ALLERTON RD", "naptan:Indicator": "QUEENS DRIVE/ALLERTON ROAD", "naptan:Landmark": "ELM HALL DRIVE O/S 90", "naptan:NaptanCode": "merdmaga", "naptan:Notes": "No Notes", "naptan:PlusbusZoneRef": "LVRPLCH", "naptan:ShortCommonName": "Allerton Rd", "naptan:Street": "QUEENS DRIVE", "naptan:verified": "no", "public_transport": "platform", "shelter": "no", "source": "naptan_import"}}, {"type": "node", "id": 1001109362, "lat": 53.3888491, "lon": -2.9132276, "tags": {"brand": "Tesco Express", "brand:wikidata": "Q98456772", "brand:wikipedia": "en:Tesco", "contact:website": "https://www.tesco.com/store-locator/liverpool/5-allerton-rd", "fhrs:id": "1244117", "name": "Tesco Express", "shop": "convenience"}}, {"type": "node", "id": 2433433559, "lat": 53.3872766, "lon": -2.9186632}, {"type": "node", "id": 2433433560, "lat": 53.3871818, "lon": -2.9188764}, {"type": "node", "id": 2433433561, "lat": 53.3871658, "lon": -2.918859}, {"type": "node", "id": 2433433562, "lat": 53.3871418, "lon": -2.9189059}, {"type": "node", "id": 2433433563, "lat": 53.3871266, "lon": -2.9188858}, {"type": "node", "id": 2433433564, "lat": 53.3871154, "lon": -2.9188898}, {"type": "node", "id": 2433433565, "lat": 53.3871062, "lon": -2.9188717}, {"type": "node", "id": 2433433566, "lat": 53.3871006, "lon": -2.9188496}, {"type": "node", "id": 2433433567, "lat": 53.3871078, "lon": -2.9188355}, {"type": "node", "id": 2433433569, "lat": 53.3870894, "lon": -2.9188167}, {"type": "node", "id": 2433433570, "lat": 53.3870758, "lon": -2.9188489}, {"type": "node", "id": 2433433571, "lat": 53.387063, "lon": -2.9188543}, {"type": "node", "id": 2433433572, "lat": 53.387057, "lon": -2.9188529}, {"type": "node", "id": 2433433573, "lat": 53.3870554, "lon": -2.918859}, {"type": "node", "id": 2433433574, "lat": 53.387015, "lon": -2.9188187}, {"type": "node", "id": 2433433575, "lat": 53.387033, "lon": -2.9187812}, {"type": "node", "id": 2433433576, "lat": 53.3869886, "lon": -2.9187255}, {"type": "node", "id": 2433433577, "lat": 53.3870466, "lon": -2.9185975}, {"type": "node", "id": 2433433578, "lat": 53.3870434, "lon": -2.9185794}, {"type": "node", "id": 2433433580, "lat": 53.3870494, "lon": -2.918572}, {"type": "node", "id": 2433433581, "lat": 53.3870594, "lon": -2.9185767}, {"type": "node", "id": 2433433582, "lat": 53.3870734, "lon": -2.9185398}, {"type": "node", "id": 2433433583, "lat": 53.3870494, "lon": -2.9185103}, {"type": "node", "id": 2433433584, "lat": 53.3870998, "lon": -2.9183869}, {"type": "node", "id": 2433433585, "lat": 53.3871758, "lon": -2.9184848}, {"type": "node", "id": 2433433587, "lat": 53.3871762, "lon": -2.9185063}, {"type": "node", "id": 2433433588, "lat": 53.3871874, "lon": -2.918521}, {"type": "node", "id": 2433433589, "lat": 53.3871802, "lon": -2.9185385}, {"type": "node", "id": 4839985427, "lat": 53.3891752, "lon": -2.9151653, "tags": {"amenity": "pharmacy", "brand": "Boots", "brand:wikidata": "Q6123139", "brand:wikipedia": "en:Boots (company)", "healthcare": "pharmacy", "name": "Boots"}}, {"type": "node", "id": 4839985428, "lat": 53.3898582, "lon": -2.9147388, "tags": {"amenity": "restaurant", "name": "Schmooze"}}, {"type": "node", "id": 4839985429, "lat": 53.3896199, "lon": -2.9146905, "tags": {"amenity": "restaurant", "name": "Gracias"}}, {"type": "node", "id": 4840045127, "lat": 53.3889006, "lon": -2.9162922, "tags": {"addr:city": "Liverpool", "addr:housenumber": "364-368", "addr:postcode": "L15 5AN", "addr:street": "Smithdown Road", "amenity": "restaurant", "name": "Leaf", "old_name": "Hatton's", "website": "https://www.thisisleaf.co.uk/smithdown-rd"}}, {"type": "node", "id": 5484789360, "lat": 53.3890045, "lon": -2.914126, "tags": {"amenity": "bank", "brand": "TSB", "brand:wikidata": "Q7671560", "brand:wikipedia": "en:TSB Bank (United Kingdom)", "name": "TSB"}}, {"type": "node", "id": 5484789361, "lat": 53.3887571, "lon": -2.9127545, "tags": {"amenity": "bank", "brand": "Halifax", "brand:wikidata": "Q3310164", "brand:wikipedia": "en:Halifax (bank)", "name": "Halifax"}}, {"type": "node", "id": 5484801895, "lat": 53.390012, "lon": -2.9165532, "tags": {"name": "Barnardo's", "office": "charity"}}, {"type": "node", "id": 6872687490, "lat": 53.3892707, "lon": -2.918293, "tags": {"addr:housenumber": "336-338", "addr:street": "Smithdown Road", "amenity": "restaurant", "name": "TriBeCa", "phone": "+44 151 733 6366", "website": "https://tribeca-liverpool.co.uk/"}}, {"type": "node", "id": 8980167799, "lat": 53.3891408, "lon": -2.9162362, "tags": {"addr:city": "Liverpool", "addr:housenumber": "619-625", "addr:postcode": "L15 5AG", "addr:street": "Smithdown Road", "amenity": "restaurant", "cuisine": "breakfast;american;mexican", "name": "The Tavern Company", "website": "https://www.tavernco.co.uk/"}}, {"type": "node", "id": 9149270368, "lat": 53.3885964, "lon": -2.9157809}, {"type": "node", "id": 9149270369, "lat": 53.3887051, "lon": -2.9155606}, {"type": "node", "id": 9149270370, "lat": 53.3886181, "lon": -2.9154491}, {"type": "node", "id": 9149270371, "lat": 53.3885125, "lon": -2.9156686}, {"type": "node", "id": 12100916054, "lat": 53.3886849, "lon": -2.912402, "tags": {"addr:city": "Liverpool", "addr:housenumber": "13", "addr:postcode": "L18 1LJ", "addr:street": "Allerton Road", "description": "J&M Green Mortgages Services Ltd are an award-winning family business of mortgage and insurance brokers with outstanding industry knowledge to help you get the best deals on your home.", "name": "J&M Green Mortgage Services Ltd", "office": "financial", "opening_hours": "9am to 7pm Everyday", "phone": "+44 151 230 0909", "website": "https://www.gmsltd.co.uk"}}, {"type": "node", "id": 13192311914, "lat": 53.3897417, "lon": -2.9145326, "tags": {"bus": "yes", "name": "Chruch Road/Penny Lane", "public_transport": "stop_position"}}, {"type": "node", "id": 13202348377, "lat": 53.3892001, "lon": -2.9147583, "tags": {"bus": "yes", "name": "Penny Lane/Smithdown Place", "public_transport": "stop_position"}}, {"type": "node", "id": 13647660271, "lat": 53.3884947, "lon": -2.9138419, "tags": {"addr:city": "Liverpool", "addr:housenumber": "18-20", "addr:postcode": "L18 1LN", "addr:street": "Allerton Road", "addr:suburb": "Mossley Hill", "name": "Entwistle Green", "office": "estate_agent", "phone": "+44 151 268 6010", "source": "Mapillary", "survey:date": "2022-04-24", "website": "https://www.entwistlegreen.co.uk/toletoffice/Allerton/139"}}, {"type": "node", "id": 13647670710, "lat": 53.3884755, "lon": -2.913693, "tags": {"addr:street": "Allerton Road", "name": "Kennan Doyle Solicitors", "office": "lawyer", "source": "Mapillary", "survey:date": "2022-04-24"}}, {"type": "node", "id": 13647670712, "lat": 53.3884515, "lon": -2.91352, "tags": {"addr:street": "Allerton Road", "name": "Morecrofts", "office": "lawyer", "source": "Mapillary", "survey:date": "2022-04-24"}}, {"type": "node", "id": 13647670713, "lat": 53.3884419, "lon": -2.9134128, "tags": {"addr:street": "Allerton Road", "brand": "Jones & Chapman", "brand:wikidata": "Q81858007", "name": "Jones & Chapman", "office": "estate_agent", "source": "Mapillary", "survey:date": "2022-04-24"}}, {"type": "node", "id": 13647670714, "lat": 53.3883835, "lon": -2.9130533, "tags": {"addr:street": "Allerton Road", "name": "SuttonKersh", "office": "estate_agent", "source": "Mapillary", "survey:date": "2022-04-24"}}, {"type": "node", "id": 13647670716, "lat": 53.3883579, "lon": -2.9128414, "tags": {"addr:street": "Allerton Road", "amenity": "fast_food", "brand": "Papa John's", "brand:wikidata": "Q2759586", "cuisine": "pizza", "name": "Papa John's", "source": "Mapillary", "survey:date": "2022-04-24", "takeaway": "yes"}}, {"type": "node", "id": 13647670717, "lat": 53.3883435, "lon": -2.9127274, "tags": {"addr:street": "Allerton Road", "name": "Move Residential", "office": "estate_agent", "source": "Mapillary", "survey:date": "2022-04-24"}}, {"type": "way", "id": 235258450, "nodes": [2433433559, 2433433560, 2433433561, 2433433562, 2433433563, 2433433564, 2433433565, 2433433566, 2433433567, 2433433569, 2433433570, 2433433571, 2433433572, 2433433573, 2433433574, 2433433575, 2433433576, 2433433577, 2433433578, 2433433580, 2433433581, 2433433582, 2433433583, 2433433584, 2433433585, 2433433587, 2433433588, 2433433589, 2433433559], "tags": {"addr:city": "Liverpool", "addr:housenumber": "60", "addr:postcode": "L18 1DG", "addr:street": "Penny Lane", "amenity": "pub", "building": "retail", "building:levels": "1", "fhrs:id": "1916617", "name": "Dovedale Towers"}}, {"type": "way", "id": 990063832, "nodes": [9149270368, 9149270369, 9149270370, 9149270371, 9149270368], "tags": {"addr:city": "Liverpool", "addr:housenumber": "116", "addr:postcode": "L18 1DG", "addr:street": "Penny Lane", "amenity": "pub", "building": "yes", "name": "The Penny Lane"}}]}