{"version": 0.6, "generator": "Overpass API 0.7.62.11 87bfad18", "osm3s": {"timestamp_osm_base": "2026-05-18T15:01:15Z", "copyright": "The data included in this document is from www.openstreetmap.org. The data is made available under ODbL."}, "elements": [{"type": "node", "id": 533855471, "lat": 53.410672, "lon": -2.9634999, "tags": {"bus": "yes", "highway": "bus_stop", "name": "PRESCOT STREET/ROYAL HOSPITAL", "naptan:AtcoCode": "2800S41023A", "naptan:Bearing": "W", "naptan:CommonName": "Low Hill", "naptan:Indicator": "Adjacent", "naptan:Landmark": "O/S HOSPITAL BOILER HOUSE NR HALL LANE", "naptan:NaptanCode": "merdatjt", "naptan:Notes": "No Notes", "naptan:PlusbusZoneRef": "LVRPLCH", "naptan:ShortCommonName": "Royal Hospital", "naptan:Street": "Prescot Street", "naptan:verified": "no", "public_transport": "platform", "shelter": "yes", "source": "naptan_import"}}, {"type": "node", "id": 533855478, "lat": 53.4111439, "lon": -2.9602012, "tags": {"bench": "yes", "bin": "yes", "bus": "yes", "highway": "bus_stop", "lit": "yes", "name": "KENSINGTON/GUELPH STREET", "naptan:AtcoCode": "2800S41023B", "naptan:Bearing": "E", "naptan:CommonName": "KENSINGTON/GUELPH STREET", "naptan:Indicator": "KENSINGTON/PRESCOT STREET", "naptan:Landmark": "OPP GUELPH PLACE NR HALL LANE", "naptan:NaptanCode": "merdatjw", "naptan:Notes": "No Notes", "naptan:PlusbusZoneRef": "LVRPLCH", "naptan:ShortCommonName": "Kensington", "naptan:Street": "KENSINGTON", "naptan:verified": "no", "public_transport": "platform", "shelter": "yes", "source": "naptan_import", "tactile_paving": "yes"}}, {"type": "node", "id": 533855485, "lat": 53.4111132, "lon": -2.9596683, "tags": {"bench": "yes", "bin": "no", "bus": "yes", "highway": "bus_stop", "lit": "yes", "name": "KENSINGTON/GUELPH STREET", "naptan:AtcoCode": "2800S41023C", "naptan:Bearing": "W", "naptan:CommonName": "KENSINGTON/GUELPH STREET", "naptan:Indicator": "KENSINGTON/PRESCOT STREET", "naptan:Landmark": "NR HALL LANE O/S GUELPH PLACE", "naptan:NaptanCode": "merdatma", "naptan:Notes": "No Notes", "naptan:PlusbusZoneRef": "LVRPLCH", "naptan:ShortCommonName": "Kensington", "naptan:Street": "KENSINGTON", "naptan:verified": "no", "public_transport": "platform", "shelter": "yes", "source": "naptan_import", "tactile_paving": "no"}}, {"type": "node", "id": 533856631, "lat": 53.410416, "lon": -2.9664328, "tags": {"bench": "yes", "bus": "yes", "check_date:bench": "2022-11-21", "highway": "bus_stop", "name": "Prescot St/Royal Lpool Hospital Stop K", "naptan:AtcoCode": "2800S42016A", "naptan:Bearing": "W", "naptan:CommonName": "Prescot St/royal Lpool Hospital Stop K", "naptan:Indicator": "Prescot Street/royal Liverpool Hospital Stop K", "naptan:Landmark": "Stop Wl Nr Main Entrance Royal Liverpool Hospit", "naptan:NaptanCode": "merdgwdm", "naptan:Notes": "No Notes", "naptan:PlusbusZoneRef": "LVRPLCH", "naptan:ShortCommonName": "Royal Lpool Hosp K", "naptan:Street": "Prescot Street", "naptan:verified": "no", "public_transport": "platform", "shelter": "yes", "source": "naptan_import"}}, {"type": "node", "id": 533856632, "lat": 53.4105866, "lon": -2.9661332, "tags": {"bench": "yes", "bin": "no", "bus": "yes", "highway": "bus_stop", "name": "Prescot St/royal Lpool Hospital Stop J", "naptan:AtcoCode": "2800S42016B", "naptan:Bearing": "E", "naptan:CommonName": "Prescot St/royal Lpool Hospital Stop J", "naptan:Indicator": "Prescot Street/royal Liverpool Hospital Stop J", "naptan:Landmark": "Almost Opp Royal Liverpool Hospital Corner Epwo", "naptan:NaptanCode": "merdgwdp", "naptan:Notes": "No Notes", "naptan:PlusbusZoneRef": "LVRPLCH", "naptan:ShortCommonName": "Royal Lpool Hosp J", "naptan:Street": "Prescot Street", "naptan:verified": "no", "public_transport": "platform", "shelter": "yes", "source": "naptan_import"}}, {"type": "node", "id": 533856634, "lat": 53.4112088, "lon": -2.9677158, "tags": {"bench": "no", "bin": "no", "bus": "yes", "covered": "no", "departures_board": "timetable", "highway": "bus_stop", "lit": "yes", "name": "Moss Street / Erskine Street", "naptan:AtcoCode": "2800S42016C", "naptan:Bearing": "S", "naptan:CommonName": "MOSS STREET/PRESCOT STREET", "naptan:Indicator": "MOSS STREET/PRESCOT STREET", "naptan:Landmark": "OPP DEVON STREET", "naptan:NaptanCode": "merdgwdt", "naptan:Notes": "No Notes", "naptan:PlusbusZoneRef": "LVRPLCH", "naptan:ShortCommonName": "Moss St/Prescot St", "naptan:Street": "MOSS STREET", "naptan:verified": "yes", "public_transport": "platform", "route_ref": "21", "shelter": "no", "sign": "yes", "source": "naptan_import", "tactile_paving": "no"}}, {"type": "node", "id": 533856671, "lat": 53.4124241, "lon": -2.96789, "tags": {"bus": "yes", "highway": "bus_stop", "name": "SHAW STREET/BRUNSWICK ROAD", "naptan:AtcoCode": "2800S42027A", "naptan:Bearing": "S", "naptan:CommonName": "SHAW STREET/BRUNSWICK ROAD", "naptan:Indicator": "SHAW STREET/BRUNSWICK ROAD", "naptan:Landmark": "BETWEEN BRUNSWICK ROAD AND COLLEGE STREET SOUTH", "naptan:NaptanCode": "merdgwtg", "naptan:Notes": "No Notes", "naptan:PlusbusZoneRef": "LVRPLCH", "naptan:ShortCommonName": "Shaw St", "naptan:Street": "SHAW STREET", "naptan:verified": "no", "public_transport": "platform", "source": "naptan_import"}}, {"type": "node", "id": 533856673, "lat": 53.4128073, "lon": -2.9683049, "tags": {"bus": "yes", "highway": "bus_stop", "name": "SHAW STREET/BRUNSWICK ROAD", "naptan:AtcoCode": "2800S42027B", "naptan:Bearing": "N", "naptan:CommonName": "SHAW STREET/BRUNSWICK ROAD", "naptan:Indicator": "SHAW STREET/BRUNSWICK ROAD", "naptan:Landmark": "NR CORNER NEW ISLINGTON", "naptan:NaptanCode": "merdgwtj", "naptan:Notes": "No Notes", "naptan:PlusbusZoneRef": "LVRPLCH", "naptan:ShortCommonName": "Shaw St", "naptan:Street": "SHAW STREET", "naptan:verified": "no", "public_transport": "platform", "source": "naptan_import"}}, {"type": "node", "id": 533856674, "lat": 53.4123079, "lon": -2.9666507, "tags": {"bench": "yes", "bin": "no", "bus": "yes", "highway": "bus_stop", "lit": "yes", "name": "BRUNSWICK ROAD/SHAW STREET B", "naptan:AtcoCode": "2800S42027C", "naptan:Bearing": "NE", "naptan:CommonName": "BRUNSWICK ROAD/SHAW STREET", "naptan:Indicator": "BRUNSWICK ROAD/SHAW STREET", "naptan:Landmark": "2ND SHELTER FROM JUNCTION", "naptan:NaptanCode": "merdgwtm", "naptan:Notes": "No Notes", "naptan:PlusbusZoneRef": "LVRPLCH", "naptan:ShortCommonName": "Brunswick Rd", "naptan:Street": "BRUNSWICK ROAD", "naptan:verified": "no", "public_transport": "platform", "shelter": "yes", "source": "naptan_import", "tactile_paving": "yes"}}, {"type": "node", "id": 533856675, "lat": 53.4121864, "lon": -2.9669424, "tags": {"bench": "yes", "bin": "no", "bus": "yes", "highway": "bus_stop", "lit": "yes", "name": "BRUNSWICK ROAD/SHAW STREET", "naptan:AtcoCode": "2800S42027D", "naptan:Bearing": "NE", "naptan:CommonName": "BRUNSWICK ROAD/SHAW STREET", "naptan:Indicator": "BRUNSWICK ROAD/SHAW STREET", "naptan:Landmark": "SHELTER NEAREST BRUNSWICK STREET", "naptan:NaptanCode": "merdgwtp", "naptan:Notes": "No Notes", "naptan:PlusbusZoneRef": "LVRPLCH", "naptan:ShortCommonName": "Brunswick Rd", "naptan:Street": "BRUNSWICK ROAD", "naptan:verified": "no", "public_transport": "platform", "shelter": "yes", "source": "naptan_import", "tactile_paving": "yes"}}, {"type": "node", "id": 533856679, "lat": 53.4094161, "lon": -2.9677959, "tags": {"bench": "yes", "bin": "no", "bus": "yes", "highway": "bus_stop", "lit": "yes", "name": "Daulby St/royal Lpool Hospital Stop L", "naptan:AtcoCode": "2800S42028B", "naptan:Bearing": "S", "naptan:CommonName": "Daulby St/royal Lpool Hospital Stop L", "naptan:Indicator": "Daulby Street/royal Liverpool Hospital Stop L", "naptan:Landmark": "O/s Royal Liverpool Hospital Medical School", "naptan:NaptanCode": "merdjada", "naptan:Notes": "No Notes", "naptan:PlusbusZoneRef": "LVRPLCH", "naptan:ShortCommonName": "Royal Lpool Hosp L", "naptan:Street": "Daulby Street", "naptan:verified": "no", "public_transport": "platform", "shelter": "yes", "source": "naptan_import"}}, {"type": "node", "id": 533856680, "lat": 53.4086718, "lon": -2.9669297, "tags": {"bench": "yes", "bin": "no", "bus": "yes", "highway": "bus_stop", "lit": "yes", "name": "Dental Hosp/pembroke Pl(smart Only) Stop M", "naptan:AtcoCode": "2800S42028C", "naptan:Bearing": "E", "naptan:CommonName": "Dental Hosp/pembroke Pl(smart Only) Stop M", "naptan:Indicator": "Pembroke Place/daulby Street Stop M", "naptan:Landmark": "O/s Dental Hospital", "naptan:NaptanCode": "merdjadg", "naptan:Notes": "No Notes", "naptan:PlusbusZoneRef": "LVRPLCH", "naptan:ShortCommonName": "Dental Hospital (m)", "naptan:Street": "Pembroke Place", "naptan:verified": "no", "public_transport": "platform", "shelter": "yes", "source": "naptan_import"}}, {"type": "node", "id": 533856682, "lat": 53.4085443, "lon": -2.9668609, "tags": {"bench": "yes", "bin": "yes", "bus": "yes", "highway": "bus_stop", "lit": "yes", "name": "Pembroke Pl/daulby St(smart Only) Stop N", "naptan:AtcoCode": "2800S42028D", "naptan:Bearing": "W", "naptan:CommonName": "Pembroke Pl/daulby St(smart Only) Stop N", "naptan:Indicator": "Pembroke Place/daulby Street Stop N", "naptan:Landmark": "Opp Dental Hospital", "naptan:NaptanCode": "merdjadj", "naptan:Notes": "No Notes", "naptan:PlusbusZoneRef": "LVRPLCH", "naptan:ShortCommonName": "Pembroke Place (n)", "naptan:Street": "Pembroke Place", "naptan:verified": "no", "public_transport": "platform", "shelter": "yes", "source": "naptan_import"}}, {"type": "node", "id": 4417914229, "lat": 53.4107298, "lon": -2.9651605, "tags": {"brand": "Spar", "brand:wikidata": "Q610492", "brand:wikipedia": "en:SPAR (retailer)", "name": "Spar", "shop": "convenience"}}, {"type": "node", "id": 4417914231, "lat": 53.4108608, "lon": -2.9635967, "tags": {"addr:city": "Liverpool", "addr:housename": "Tesco Express", "addr:housenumber": "63", "addr:postcode": "L7 8UH", "addr:street": "Prescot Street", "brand": "Tesco Express", "brand:wikidata": "Q98456772", "brand:wikipedia": "en:Tesco", "contact:website": "https://www.tesco.com/store-locator/liverpool/63-prescot-st", "fhrs:id": "650704", "name": "Tesco Express", "shop": "convenience", "source:addr": "FHRS Open Data"}}, {"type": "node", "id": 4417914234, "lat": 53.410701, "lon": -2.9655789, "tags": {"amenity": "fast_food", "brand": "Papa John's", "brand:wikidata": "Q2759586", "brand:wikipedia": "en:Papa John's Pizza", "check_date": "2024-10-15", "check_date:opening_hours": "2024-10-15", "cuisine": "pizza", "name": "Papa John's", "opening_hours": "Mo-Su 11:00-02:00", "phone": "+44 151 665 0450", "takeaway": "only", "website": "https://www.papajohns.co.uk/stores/liverpool-prescot-street"}}, {"type": "node", "id": 4417914235, "lat": 53.4108224, "lon": -2.9640715, "tags": {"addr:city": "Liverpool", "addr:postcode": "L7 8UL", "addr:street": "Prescot Street", "amenity": "fast_food", "brand": "Pizza Hut Delivery", "brand:wikidata": "Q107293079", "brand:wikipedia": "en:Pizza Hut", "check_date": "2024-09-19", "check_date:opening_hours": "2024-09-19", "cuisine": "pizza", "delivery": "yes", "fhrs:id": "1377195", "name": "Pizza Hut Delivery", "opening_hours": "Mo-Su 12:00-23:00", "phone": "+44 151 345 8345", "source:addr": "FHRS Open Data", "takeaway": "only", "website": "https://www.pizzahut.co.uk/huts/uk-1/8033-liverpool-city-centre/"}}, {"type": "node", "id": 4417914238, "lat": 53.410613, "lon": -2.9664506, "tags": {"amenity": "restaurant", "cuisine": "chinese", "name": "Buffet Club"}}, {"type": "node", "id": 4417914239, "lat": 53.4107808, "lon": -2.9645623, "tags": {"amenity": "fast_food", "brand": "Greggs", "brand:wikidata": "Q3403981", "brand:wikipedia": "en:Greggs", "contact:website": "https://www.greggs.co.uk/shop-finder?shop-code=1966", "cuisine": "sandwich;bakery", "name": "Greggs", "takeaway": "yes"}}, {"type": "node", "id": 8396967224, "lat": 53.4114739, "lon": -2.9686156}, {"type": "node", "id": 10294201740, "lat": 53.4113211, "lon": -2.9686051}, {"type": "node", "id": 10294238218, "lat": 53.4113243, "lon": -2.9683505}, {"type": "node", "id": 10563700252, "lat": 53.4114794, "lon": -2.968359}, {"type": "node", "id": 10744062729, "lat": 53.4110279, "lon": -2.9598884, "tags": {"name": "Mohan Mini Market", "shop": "convenience"}}, {"type": "node", "id": 11727882946, "lat": 53.4108203, "lon": -2.9635407, "tags": {"bus": "yes", "highway": "bus_stop", "name": "PRESCOT STREET/OPP ROYAL HOSPITAL", "naptan:AtcoCode": "2800S41225A", "naptan:Bearing": "E", "naptan:CommonName": "Royal Liverpool University Hospital", "naptan:Indicator": "Adjacent", "naptan:Landmark": "O/S HOSPITAL BOILER HOUSE NR HALL LANE", "naptan:NaptanCode": "mergmgjt", "naptan:Notes": "No Notes", "naptan:PlusbusZoneRef": "LVRPLCH", "naptan:ShortCommonName": "Royal Hospital", "naptan:Street": "Prescot Street", "naptan:verified": "no", "public_transport": "platform", "shelter": "yes", "source": "naptan_import"}}, {"type": "node", "id": 12382325101, "lat": 53.4105637, "lon": -2.9674638, "tags": {"addr:housenumber": "5", "addr:postcode": "L7 8UE", "addr:street": "Prescot Street", "amenity": "restaurant", "cuisine": "chinese", "name": "LiangJi Wraps", "opening_hours": "Mo-Fr 09:00-21:00; Sa-Su 10:30-21:00", "phone": "+44 151 538 1254", "self_service": "no", "website": "https://www.liangji.co.uk/"}}, {"type": "node", "id": 12899619540, "lat": 53.4104961, "lon": -2.9664546, "tags": {"bus": "yes", "name": "Prescott Street/Royal Liverpool Hospital", "public_transport": "stop_position"}}, {"type": "node", "id": 12905498785, "lat": 53.4086096, "lon": -2.966939, "tags": {"bus": "yes", "name": "Liverpool (Adj Daulby Street)", "public_transport": "stop_position"}}, {"type": "way", "id": 1125738657, "nodes": [8396967224, 10563700252, 10294238218, 10294201740, 8396967224], "tags": {"addr:city": "Liverpool", "addr:housenumber": "9", "addr:postcode": "L6 1AG", "addr:street": "Moss Street", "building": "business_unit", "construction": "commercial_unit", "name": "Emilia's", "shop": "convenience", "source:addr:postcode": "code-point_open"}}]}