{"version": 0.6, "generator": "Overpass API 0.7.62.11 87bfad18", "osm3s": {"timestamp_osm_base": "2026-05-18T15:11:27Z", "copyright": "The data included in this document is from www.openstreetmap.org. The data is made available under ODbL."}, "elements": [{"type": "node", "id": 533857547, "lat": 53.3873258, "lon": -2.9096564, "tags": {"bench": "yes", "bus": "yes", "highway": "bus_stop", "name": "ALLERTON ROAD/ENSWORTH RD", "naptan:AtcoCode": "2800S43022A", "naptan:Bearing": "SE", "naptan:CommonName": "ALLERTON ROAD/ENSWORTH RD", "naptan:Indicator": "ALLERTON ROAD/MENLOVE AVENUE", "naptan:Landmark": "CORNER ENSWORTH ROAD O/S SHOP 51", "naptan:NaptanCode": "merdjgpw", "naptan:Notes": "No Notes", "naptan:PlusbusZoneRef": "LVRPLCH", "naptan:ShortCommonName": "Ensworth Rd", "naptan:Street": "ALLERTON ROAD", "naptan:verified": "no", "public_transport": "platform", "shelter": "yes", "source": "naptan_import"}}, {"type": "node", "id": 533857549, "lat": 53.3881958, "lon": -2.9084292, "tags": {"bus": "yes", "highway": "bus_stop", "name": "MENLOVE AVE", "naptan:AtcoCode": "2800S43022B", "naptan:Bearing": "E", "naptan:CommonName": "MENLOVE AVE", "naptan:Indicator": "MENLOVE AVENUE/ALLERTON ROAD", "naptan:Landmark": "O/S 15", "naptan:NaptanCode": "merdjgta", "naptan:Notes": "No Notes", "naptan:PlusbusZoneRef": "LVRPLCH", "naptan:ShortCommonName": "Menlove Ave", "naptan:Street": "MENLOVE AVENUE", "naptan:verified": "no", "public_transport": "platform", "shelter": "yes", "source": "naptan_import"}}, {"type": "node", "id": 533857551, "lat": 53.3878695, "lon": -2.9080537, "tags": {"bus": "yes", "highway": "bus_stop", "name": "MENLOVE AVE/WYNDCOTTE RD", "naptan:AtcoCode": "2800S43022C", "naptan:Bearing": "W", "naptan:CommonName": "MENLOVE AVE/WYNDCOTTE RD", "naptan:Indicator": "MENLOVE AVENUE/ALLERTON ROAD", "naptan:Landmark": "OPP 15", "naptan:NaptanCode": "merdjgtd", "naptan:Notes": "No Notes", "naptan:PlusbusZoneRef": "LVRPLCH", "naptan:ShortCommonName": "Wyndcote Rd", "naptan:Street": "MENLOVE AVENUE", "naptan:verified": "no", "public_transport": "platform", "source": "naptan_import"}}, {"type": "node", "id": 533857553, "lat": 53.3870734, "lon": -2.9097413, "tags": {"bus": "yes", "highway": "bus_stop", "name": "Allerton Road/mapledale Rd", "naptan:AtcoCode": "2800S43022D", "naptan:Bearing": "NW", "naptan:CommonName": "Allerton Road/mapledale Rd", "naptan:Indicator": "Allerton Road/menlove Avenue", "naptan:Landmark": "O/s 108", "naptan:NaptanCode": "merdjgtg", "naptan:Notes": "No Notes", "naptan:PlusbusZoneRef": "LVRPLCH", "naptan:ShortCommonName": "Mapledale Rd", "naptan:Street": "Allerton Road", "naptan:verified": "no", "public_transport": "platform", "source": "naptan_import"}}, {"type": "node", "id": 533857554, "lat": 53.3874034, "lon": -2.9053577, "tags": {"bus": "yes", "highway": "bus_stop", "name": "MENLOVE AVE/ADDINGHAM RD", "naptan:AtcoCode": "2800S43023A", "naptan:Bearing": "W", "naptan:CommonName": "MENLOVE AVE/ADDINGHAM RD", "naptan:Indicator": "MENLOVE AVENUE/ALLERTON ROAD", "naptan:Landmark": "O/S 26 CORNER ADDINGHAM ROAD", "naptan:NaptanCode": "merdjgtj", "naptan:Notes": "No Notes", "naptan:PlusbusZoneRef": "LVRPLCH", "naptan:ShortCommonName": "Adingham Rd", "naptan:Street": "MENLOVE AVENUE", "naptan:verified": "no", "public_transport": "platform", "source": "naptan_import"}}, {"type": "node", "id": 533857556, "lat": 53.3875148, "lon": -2.9048939, "tags": {"bus": "yes", "highway": "bus_stop", "name": "MENLOVE AVENUE", "naptan:AtcoCode": "2800S43023B", "naptan:Bearing": "E", "naptan:CommonName": "MENLOVE AVENUE", "naptan:Indicator": "MENLOVE AVENUE/ALLERTON ROAD", "naptan:Landmark": "O/S 49 OPP ADDINGHAM ROAD", "naptan:NaptanCode": "merdjgtm", "naptan:Notes": "No Notes", "naptan:PlusbusZoneRef": "LVRPLCH", "naptan:ShortCommonName": "Menlove Av", "naptan:Street": "MENLOVE AVENUE", "naptan:verified": "no", "public_transport": "platform", "source": "naptan_import"}}, {"type": "node", "id": 533860389, "lat": 53.3856557, "lon": -2.9082225, "tags": {"bus": "yes", "highway": "bus_stop", "name": "ALLERTON ROAD/GARTHDALE ROAD", "naptan:AtcoCode": "2800S43098A", "naptan:Bearing": "NW", "naptan:CommonName": "ALLERTON ROAD/GARTHDALE ROAD", "naptan:Indicator": "ALLERTON ROAD/GREEN LANE", "naptan:Landmark": "CORNER GARTHDALE ROAD SHOP 174 (RITZ VIDOE) TO", "naptan:NaptanCode": "merdjwdg", "naptan:Notes": "No Notes", "naptan:PlusbusZoneRef": "LVRPLCH", "naptan:ShortCommonName": "Garthdale Rd", "naptan:Street": "ALLERTON ROAD", "naptan:verified": "no", "public_transport": "platform", "source": "naptan_import"}}, {"type": "node", "id": 638938708, "lat": 53.3872734, "lon": -2.9094311, "tags": {"addr:city": "Liverpool", "addr:housenumber": "55", "addr:postcode": "L18 2DA", "addr:street": "Allerton Road", "amenity": "restaurant", "cuisine": "chinese", "name": "Fung Lok"}}, {"type": "node", "id": 5484789359, "lat": 53.3877796, "lon": -2.9102221, "tags": {"addr:city": "Liverpool", "addr:street": "Allerton Road", "amenity": "bank", "brand": "HSBC UK", "brand:wikidata": "Q64767453", "brand:wikipedia": "en:HSBC", "name": "HSBC UK"}}, {"type": "node", "id": 10592100797, "lat": 53.3862575, "lon": -2.90914, "tags": {"addr:city": "Liverpool", "addr:postcode": "L18 2JN", "addr:street": "Allerton Road", "amenity": "bank", "brand": "NatWest", "brand:wikidata": "Q2740021", "name": "NatWest", "source:addr:postcode": "code-point_open", "website": "https://www.natwest.com/search-results/locator/branch.html?sortcode=600111&name=Liverpool%20Allerton%20Road"}}, {"type": "node", "id": 10592152607, "lat": 53.3855265, "lon": -2.9083796, "tags": {"amenity": "bank", "brand": "Barclays", "brand:wikidata": "Q245343", "name": "Barclays"}}, {"type": "node", "id": 10592152608, "lat": 53.3856561, "lon": -2.9085258, "tags": {"addr:street": "Allerton Road", "branch": "Liverpool Allerton Road", "brand": "Sainsbury's Local", "brand:wikidata": "Q13218434", "name": "Sainsbury's Local", "phone": "+44 330 013 7788", "shop": "convenience", "website": "https://stores.sainsburys.co.uk/6265/liverpool-allerton-road-local"}}, {"type": "node", "id": 10694401546, "lat": 53.3870918, "lon": -2.9091789, "tags": {"addr:city": "Liverpool", "addr:street": "Allerton Road", "name": "Maze", "shop": "clothes"}}, {"type": "node", "id": 10694401547, "lat": 53.3870458, "lon": -2.9091279, "tags": {"addr:city": "Liverpool", "addr:street": "Allerton Road", "name": "Allerton Convenience Store", "shop": "convenience"}}, {"type": "node", "id": 10694401549, "lat": 53.3869454, "lon": -2.9090119, "tags": {"addr:city": "Liverpool", "addr:street": "Allerton Road", "amenity": "fast_food", "brand": "Domino's", "brand:wikidata": "Q839466", "cuisine": "pizza", "name": "Domino's", "takeaway": "yes"}}, {"type": "node", "id": 10694401553, "lat": 53.3866647, "lon": -2.9086961, "tags": {"addr:city": "Liverpool", "addr:street": "Allerton Road", "name": "Pose & Pout", "shop": "clothes"}}, {"type": "node", "id": 10694401555, "lat": 53.3864567, "lon": -2.9084641, "tags": {"addr:city": "Liverpool", "addr:street": "Allerton Road", "amenity": "pub", "name": "Three Piggies"}}, {"type": "node", "id": 10694401564, "lat": 53.3857156, "lon": -2.9076936, "tags": {"addr:city": "Liverpool", "addr:street": "Allerton Road", "amenity": "restaurant", "name": "Grilla"}}, {"type": "node", "id": 10694401568, "lat": 53.3869242, "lon": -2.9096033, "tags": {"addr:city": "Liverpool", "addr:postcode": "L18 2DG", "addr:street": "Allerton Road", "name": "Kitted Out Schoolwear", "shop": "clothes", "source:addr:postcode": "ons_uprn_lookup"}}, {"type": "node", "id": 10694401573, "lat": 53.3870646, "lon": -2.9100721, "tags": {"addr:postcode": "L18 2DG", "fixme": "What is this?", "office": "yes", "source:addr:postcode": "ons_uprn_lookup"}}, {"type": "node", "id": 10694401575, "lat": 53.3869746, "lon": -2.9099333, "tags": {"addr:postcode": "L18 2DG", "name": "Different", "office": "yes", "source:addr:postcode": "ons_uprn_lookup"}}, {"type": "node", "id": 13647670723, "lat": 53.3881268, "lon": -2.9115781, "tags": {"addr:street": "Allerton Road", "amenity": "fast_food", "name": "Allerton", "source": "Mapillary", "survey:date": "2022-04-24"}}]}