{"version": 0.6, "generator": "Overpass API 0.7.62.11 87bfad18", "osm3s": {"timestamp_osm_base": "2026-05-18T15:10:25Z", "copyright": "The data included in this document is from www.openstreetmap.org. The data is made available under ODbL."}, "elements": [{"type": "node", "id": 252407839, "lat": 53.3746386, "lon": -2.9383507, "tags": {"amenity": "pub", "name": "The Fulwood Arms"}}, {"type": "node", "id": 533857438, "lat": 53.3752769, "lon": -2.939118, "tags": {"bench": "yes", "bin": "yes", "bus": "yes", "highway": "bus_stop", "lit": "yes", "name": "AIGBURTH RD/ASHBOURNE RD", "naptan:AtcoCode": "2800S43002C", "naptan:Bearing": "SE", "naptan:CommonName": "AIGBURTH RD/ASHBOURNE RD", "naptan:Indicator": "AIGBURTH ROAD", "naptan:Landmark": "OPP SHOPS 286/288 BETWEEN ANCASTER RD AND ASHBO", "naptan:NaptanCode": "merdjdtm", "naptan:Notes": "No Notes", "naptan:PlusbusZoneRef": "LVRPLCH", "naptan:ShortCommonName": "Ashbourbe Rd", "naptan:Street": "AIGBURTH ROAD", "naptan:verified": "no", "public_transport": "platform", "shelter": "yes", "source": "naptan_import"}}, {"type": "node", "id": 533857442, "lat": 53.3739464, "lon": -2.9345492, "tags": {"bench": "yes", "bin": "yes", "bus": "yes", "highway": "bus_stop", "lit": "yes", "name": "AIGBURTH VALE/BUS LAYBY", "naptan:AtcoCode": "2800S43003A", "naptan:Bearing": "SW", "naptan:CommonName": "AIGBURTH VALE/BUS LAYBY", "naptan:Indicator": "AIGBURTH VALE", "naptan:Landmark": "2ND STOP OF 2", "naptan:NaptanCode": "merdjdtp", "naptan:Notes": "No Notes", "naptan:PlusbusZoneRef": "LVRPLCH", "naptan:ShortCommonName": "Aigburth Vale/Dip", "naptan:Street": "AIGBURTH VALE", "naptan:verified": "no", "public_transport": "platform", "shelter": "yes", "source": "naptan_import"}}, {"type": "node", "id": 533857444, "lat": 53.3740843, "lon": -2.9352437, "tags": {"bench": "yes", "bin": "yes", "bus": "yes", "covered": "no", "highway": "bus_stop", "lit": "yes", "name": "AIGBURTH VALE/(TERMINUS)", "naptan:AtcoCode": "2800S43003B", "naptan:Bearing": "SE", "naptan:CommonName": "AIGBURTH VALE/(TERMINUS)", "naptan:Indicator": "AIGBURTH ROAD/(TERMINUS)", "naptan:Landmark": "AIGBURTH VALE/(TERMINUS)", "naptan:NaptanCode": "merdjdtw", "naptan:Notes": "No Notes", "naptan:PlusbusZoneRef": "LVRPLCH", "naptan:ShortCommonName": "Aigburth Vale/(End)", "naptan:Street": "AIGBURTH ROAD", "naptan:verified": "no", "public_transport": "platform", "shelter": "yes", "source": "naptan_import"}}, {"type": "node", "id": 533857445, "lat": 53.3742538, "lon": -2.9354728, "tags": {"bench": "no", "bin": "no", "bus": "yes", "covered": "no", "highway": "bus_stop", "lit": "yes", "name": "Aigburth Road / Aigburth Vale", "naptan:AtcoCode": "2800S43003C", "naptan:Bearing": "N", "naptan:CommonName": "AIGBURTH ROAD/AIGBURTH VALE", "naptan:Indicator": "AIGBURTH ROAD/AIGBURTH VALE", "naptan:Landmark": "AIGBURTH ROAD/AIGBURTH VALE", "naptan:NaptanCode": "mergmjda", "naptan:Notes": "No Notes", "naptan:PlusbusZoneRef": "LVRPLCH", "naptan:ShortCommonName": "Aigburth Vale", "naptan:Street": "AIGBURTH ROAD", "naptan:verified": "yes", "public_transport": "platform", "shelter": "no", "source": "naptan_import"}}, {"type": "node", "id": 533857446, "lat": 53.3735789, "lon": -2.9352921, "tags": {"bench": "yes", "bin": "yes", "bus": "yes", "highway": "bus_stop", "lit": "yes", "name": "Aigburth Road / Jericho Lane", "naptan:AtcoCode": "2800S43003D", "naptan:Bearing": "NW", "naptan:CommonName": "AIGBURTH VALE", "naptan:Indicator": "AIGBURTH VALE", "naptan:Landmark": "NR CORNER JERICHO LANE", "naptan:NaptanCode": "merdjdwa", "naptan:Notes": "No Notes", "naptan:PlusbusZoneRef": "LVRPLCH", "naptan:ShortCommonName": "Aigburth Vale", "naptan:Street": "AIGBURTH VALE", "naptan:verified": "yes", "public_transport": "platform", "shelter": "yes", "source": "naptan_import"}}, {"type": "node", "id": 533857448, "lat": 53.3723433, "lon": -2.9335104, "tags": {"bench": "yes", "bin": "yes", "bus": "yes", "covered": "no", "highway": "bus_stop", "lit": "yes", "name": "Aigburth Road / Lisburn Road", "naptan:AtcoCode": "2800S43003E", "naptan:Bearing": "S", "naptan:CommonName": "AIGBURTH VALE", "naptan:Indicator": "AIGBURTH VALE", "naptan:Landmark": "CORNER LISBURN ROAD O/S SHOP 331", "naptan:NaptanCode": "merdjdwd", "naptan:Notes": "No Notes", "naptan:PlusbusZoneRef": "LVRPLCH", "naptan:ShortCommonName": "Aigburth Vale", "naptan:Street": "AIGBURTH VALE", "naptan:verified": "yes", "public_transport": "platform", "shelter": "yes", "source": "naptan_import"}}, {"type": "node", "id": 533857450, "lat": 53.3740821, "lon": -2.9344319, "tags": {"bench": "no", "bin": "no", "bus": "yes", "highway": "bus_stop", "lit": "yes", "name": "AIGBURTH VALE/SMART STOP", "naptan:AtcoCode": "2800S43003F", "naptan:Bearing": "SW", "naptan:CommonName": "AIGBURTH VALE/SMART STOP", "naptan:Indicator": "AIGBURTH VALE/SMART STOP", "naptan:Landmark": "1ST STOP OF 2", "naptan:NaptanCode": "merdjdwg", "naptan:Notes": "No Notes", "naptan:PlusbusZoneRef": "LVRPLCH", "naptan:ShortCommonName": "Aigburth Vale", "naptan:Street": "AIGBURTH VALE", "naptan:verified": "no", "public_transport": "platform", "shelter": "no", "source": "naptan_import"}}, {"type": "node", "id": 533857453, "lat": 53.3744984, "lon": -2.9340802, "tags": {"bench": "no", "bin": "no", "bus": "yes", "highway": "bus_stop", "lit": "yes", "name": "AIGBURTH VALE/BUS LAYBY", "naptan:AtcoCode": "2800S43003G", "naptan:Bearing": "N", "naptan:CommonName": "AIGBURTH VALE/BUS LAYBY", "naptan:Indicator": "AIGBURTH VALE", "naptan:Landmark": "NEAR 3 AND FULWOOD MOTOR COMPANY GARAGE", "naptan:NaptanCode": "mergmjdg", "naptan:Notes": "No Notes", "naptan:PlusbusZoneRef": "LVRPLCH", "naptan:ShortCommonName": "Aigburth Vale", "naptan:Street": "AIGBURTH VALE", "naptan:verified": "no", "public_transport": "platform", "shelter": "no", "source": "naptan_import"}}, {"type": "node", "id": 533857455, "lat": 53.3738209, "lon": -2.9356437, "tags": {"bench": "yes", "bin": "yes", "bus": "yes", "highway": "bus_stop", "lit": "yes", "name": "Aigburth Road / Jericho Lane", "naptan:AtcoCode": "2800S43003H", "naptan:Bearing": "NW", "naptan:CommonName": "AIGBURTH VALE", "naptan:Indicator": "AIGBURTH VALE", "naptan:Landmark": "O/S FLATS", "naptan:NaptanCode": "merdjdwj", "naptan:Notes": "No Notes", "naptan:PlusbusZoneRef": "LVRPLCH", "naptan:ShortCommonName": "Aigburth Vale", "naptan:Street": "AIGBURTH VALE", "naptan:verified": "yes", "public_transport": "platform", "shelter": "yes", "source": "naptan_import"}}, {"type": "node", "id": 533857714, "lat": 53.3751055, "lon": -2.9323047, "tags": {"bench": "no", "bin": "no", "bus": "yes", "highway": "bus_stop", "lit": "yes", "name": "Ashfield Road / Elmswood Road", "naptan:AtcoCode": "2800S43050A", "naptan:Bearing": "SW", "naptan:CommonName": "ASHFIELD ROAD/ELMSWOOD ROAD", "naptan:Indicator": "ASHFIELD ROAD/ELMSWOOD ROAD", "naptan:Landmark": "OPP 52", "naptan:NaptanCode": "merdjpdp", "naptan:Notes": "No Notes", "naptan:PlusbusZoneRef": "LVRPLCH", "naptan:ShortCommonName": "Elmswood Rd", "naptan:Street": "ASHFIELD ROAD", "naptan:verified": "yes", "public_transport": "platform", "shelter": "no", "source": "naptan_import"}}, {"type": "node", "id": 533857716, "lat": 53.3755687, "lon": -2.9305561, "tags": {"bench": "no", "bin": "no", "bus": "yes", "highway": "bus_stop", "lit": "yes", "name": "ELMSWOOD ROAD/ASHFIELD RD", "naptan:AtcoCode": "2800S43050B", "naptan:Bearing": "W", "naptan:CommonName": "ELMSWOOD ROAD/ASHFIELD RD", "naptan:Indicator": "ELMSWOOD ROAD/VICTORIA ROAD", "naptan:Landmark": "O/S 14", "naptan:NaptanCode": "merdjpdt", "naptan:Notes": "No Notes", "naptan:PlusbusZoneRef": "LVRPLCH", "naptan:ShortCommonName": "Ashfield Rd", "naptan:Street": "ELMSWOOD ROAD", "naptan:verified": "no", "public_transport": "platform", "shelter": "no", "source": "naptan_import"}}, {"type": "node", "id": 533857719, "lat": 53.3754846, "lon": -2.93326, "tags": {"bench": "no", "bin": "no", "bus": "yes", "highway": "bus_stop", "lit": "yes", "name": "AIGBURTH VALE", "naptan:AtcoCode": "2800S43050C", "naptan:Bearing": "SW", "naptan:CommonName": "AIGBURTH VALE", "naptan:Indicator": "AIGBURTH VALE/ELMSWOOD ROAD", "naptan:Landmark": "O/S 10", "naptan:NaptanCode": "merdjpdw", "naptan:Notes": "No Notes", "naptan:PlusbusZoneRef": "LVRPLCH", "naptan:ShortCommonName": "Aigburth Vale", "naptan:Street": "AIGBURTH VALE", "naptan:verified": "no", "public_transport": "platform", "shelter": "no", "source": "naptan_import"}}, {"type": "node", "id": 533860550, "lat": 53.3722983, "lon": -2.934934, "tags": {"bus": "yes", "highway": "bus_stop", "name": "JERICHO LANE/AIGBURTH ROAD", "naptan:AtcoCode": "2800S43149A", "naptan:Bearing": "N", "naptan:CommonName": "JERICHO LANE/AIGBURTH ROAD", "naptan:Indicator": "JERICHO LANE/AIGBURTH ROAD", "naptan:Landmark": "CORNER JERICHO CLOSE ALIGHTING ONLY", "naptan:NaptanCode": "merdmatj", "naptan:Notes": "No Notes", "naptan:PlusbusZoneRef": "LVRPLCH", "naptan:ShortCommonName": "Aigburth Rd", "naptan:Street": "JERICHO LANE", "naptan:verified": "no", "public_transport": "platform", "source": "naptan_import"}}, {"type": "node", "id": 533860552, "lat": 53.3717441, "lon": -2.935091, "tags": {"bench": "yes", "bin": "no", "bus": "yes", "highway": "bus_stop", "lit": "yes", "name": "Otterspool Road opposite Silver Leigh", "naptan:AtcoCode": "2800S43149B", "naptan:Bearing": "E", "naptan:CommonName": "Otterspool Road/acer Leigh", "naptan:Indicator": "Otterspool Road/acer Leigh", "naptan:Landmark": "Jericho Close", "naptan:NaptanCode": "mertwmpg", "naptan:PlusbusZoneRef": "LVRPLCH", "naptan:ShortCommonName": "Otterspool Road", "naptan:Street": "Jericho Close", "naptan:verified": "yes", "public_transport": "platform", "shelter": "yes", "source": "naptan_import"}}, {"type": "node", "id": 624492816, "lat": 53.3729853, "lon": -2.9336922, "tags": {"name": "golocalextra", "opening_hours": "Mo-Su 07:00-23:00", "shop": "convenience"}}, {"type": "node", "id": 10216624493, "lat": 53.3723589, "lon": -2.933344, "tags": {"addr:housenumber": "333", "addr:street": "Aigburth Road", "check_date:opening_hours": "2023-09-05", "name": "Kitted Out", "opening_hours:signed": "no", "shop": "clothes", "website": "https://kittedoutschoolwear.co.uk"}}, {"type": "node", "id": 10216659179, "lat": 53.371695, "lon": -2.9329511, "tags": {"amenity": "fast_food", "check_date:opening_hours": "2024-03-05", "cuisine": "pizza", "name": "Pitfire", "opening_hours:signed": "no"}}, {"type": "node", "id": 10216665508, "lat": 53.3717404, "lon": -2.9329799, "tags": {"amenity": "restaurant", "check_date:opening_hours": "2024-03-05", "cuisine": "thai", "name": "Thai Me Up", "opening_hours:signed": "no"}}, {"type": "node", "id": 10216684687, "lat": 53.3724123, "lon": -2.9334102, "tags": {"addr:city": "Liverpool", "addr:housenumber": "331", "addr:postcode": "L17 0BL", "addr:street": "Aigburth Road", "amenity": "fast_food", "check_date:opening_hours": "2024-07-05", "cuisine": "pizza", "fhrs:id": "1905163", "name": "Naples", "opening_hours:signed": "no", "source:addr": "FHRS Open Data"}}, {"type": "node", "id": 10218214934, "lat": 53.3732753, "lon": -2.9338679, "tags": {"amenity": "pub", "name": "The Old Bank"}}, {"type": "node", "id": 10633126175, "lat": 53.3731531, "lon": -2.9337938, "tags": {"amenity": "fast_food", "cuisine": "pizza", "name": "Gusto's Pizza"}}, {"type": "node", "id": 10633140025, "lat": 53.3730608, "lon": -2.9337251, "tags": {"amenity": "restaurant", "cuisine": "asian", "name": "Meng's Kitchen", "opening_hours": "Mo,We,Th 17:00-21:00; Fr,Sa 17:00-22:00; Su 16:00-21:00"}}, {"type": "node", "id": 10770328143, "lat": 53.3734618, "lon": -2.9336783, "tags": {"addr:housenumber": "10", "addr:street": "Ashfield Road", "name": "Capa Law Solicitors", "office": "lawyer"}}, {"type": "node", "id": 10770352211, "lat": 53.3733983, "lon": -2.9337466, "tags": {"amenity": "fast_food", "cuisine": "fish_and_chips", "name": "Steve's"}}, {"type": "node", "id": 10961904275, "lat": 53.3735155, "lon": -2.9341233, "tags": {"amenity": "pharmacy", "brand": "Boots", "brand:wikidata": "Q6123139", "healthcare": "pharmacy", "name": "Boots", "opening_hours": "Mo-Fr 09:00-18:00; Sa 09:00-13:00", "website": "https://www.boots.com/stores/924-liverpool-aigburth-road-l17-0bj"}}, {"type": "node", "id": 11730141365, "lat": 53.3757122, "lon": -2.9325519, "tags": {"brand": "Best-one", "brand:wikidata": "Q4896532", "name": "Best-one", "opening_hours": "Mo-Su 07:00-22:00", "shop": "convenience"}}, {"type": "node", "id": 13202560472, "lat": 53.375495, "lon": -2.9333282, "tags": {"bus": "yes", "name": "Aigburth Vale", "public_transport": "stop_position"}}, {"type": "node", "id": 13245494366, "lat": 53.3742257, "lon": -2.9355353, "tags": {"bus": "yes", "name": "Aigburth Road/Aigburth Vale", "public_transport": "stop_position"}}, {"type": "node", "id": 13261268559, "lat": 53.3740021, "lon": -2.9346403, "tags": {"bus": "yes", "name": "Aigburth Vale", "public_transport": "stop_position"}}]}