{"version": 0.6, "generator": "Overpass API 0.7.62.11 87bfad18", "osm3s": {"timestamp_osm_base": "2026-05-18T14:59:15Z", "copyright": "The data included in this document is from www.openstreetmap.org. The data is made available under ODbL."}, "elements": [{"type": "node", "id": 25296168, "lat": 53.3585523, "lon": -2.865193, "tags": {"amenity": "fast_food", "brand": "McDonald's", "brand:wikidata": "Q38076", "brand:wikipedia": "en:McDonald's", "check_date": "2024-08-31", "check_date:opening_hours": "2024-08-31", "contact:website": "https://www.mcdonalds.com/gb/en-gb/location/liverpool/hunts-cross/hunts-cross-shopping-park/8260427.html", "cuisine": "burger", "drive_through": "yes", "indoor_seating": "yes", "internet_access": "wlan", "name": "McDonald's", "opening_hours": "Mo-Su 00:00-24:00", "phone": "+44 151 486 3345", "self_service": "yes", "takeaway": "yes"}}, {"type": "node", "id": 26304854, "lat": 53.358, "lon": -2.86408, "tags": {"bus": "yes", "highway": "bus_stop", "name": "SPEKE HALL ROAD/HILLFOOT AVE", "naptan:AtcoCode": "2800S48019B", "naptan:Bearing": "S", "naptan:CommonName": "SPEKE HALL ROAD/HILLFOOT AVE", "naptan:Indicator": "SPEKE HALL ROAD/HILLFOOT AVENUE", "naptan:Landmark": "O/S 15 OPP ASDA", "naptan:NaptanCode": "merdtjga", "naptan:Notes": "No Notes", "naptan:PlusbusZoneRef": "LVRPLCH", "naptan:ShortCommonName": "Hillfoot Ave", "naptan:Street": "SPEKE HALL ROAD", "naptan:verified": "no", "public_transport": "platform", "source": "naptan_import"}}, {"type": "node", "id": 33167270, "lat": 53.3561422, "lon": -2.8649443}, {"type": "node", "id": 286374930, "lat": 53.3599149, "lon": -2.8651514, "tags": {"amenity": "pub", "created_by": "Potlatch 0.10b", "name": "The Hillfoot Inn"}}, {"type": "node", "id": 533861401, "lat": 53.356964, "lon": -2.8644139, "tags": {"bus": "yes", "highway": "bus_stop", "name": "SPEKE HALL ROAD/GOODLASS ROAD", "naptan:AtcoCode": "2800S48020A", "naptan:Bearing": "N", "naptan:CommonName": "SPEKE HALL ROAD/GOODLASS ROAD", "naptan:Indicator": "SPEKE HALL ROAD/TRIUMPH WAY", "naptan:Landmark": "OPP 37/39", "naptan:NaptanCode": "merdtjgd", "naptan:Notes": "No Notes", "naptan:PlusbusZoneRef": "LVRPLCH", "naptan:ShortCommonName": "Barford Rd", "naptan:Street": "SPEKE HALL ROAD", "naptan:verified": "no", "public_transport": "platform", "source": "naptan_import"}}, {"type": "node", "id": 533861565, "lat": 53.3603547, "lon": -2.8666464, "tags": {"bus": "yes", "highway": "bus_stop", "name": "HILLFOOT RD", "naptan:AtcoCode": "2800S48046A", "naptan:Bearing": "NW", "naptan:CommonName": "HILLFOOT RD", "naptan:Indicator": "HILLFOOT ROAD", "naptan:Landmark": "OPP HILLFOOT PH", "naptan:NaptanCode": "merdtmgt", "naptan:Notes": "No Notes", "naptan:PlusbusZoneRef": "LVRPLCH", "naptan:ShortCommonName": "Hillfoot Rd", "naptan:Street": "HILLFOOT ROAD", "naptan:verified": "no", "public_transport": "platform", "source": "naptan_import"}}, {"type": "node", "id": 533861566, "lat": 53.3608305, "lon": -2.8667312, "tags": {"bus": "yes", "highway": "bus_stop", "name": "HILLFOOT ROAD/SPEKE HALL ROAD", "naptan:AtcoCode": "2800S48046B", "naptan:Bearing": "SE", "naptan:CommonName": "HILLFOOT ROAD/SPEKE HALL ROAD", "naptan:Indicator": "HILLFOOT ROAD/SPEKE HALL ROAD", "naptan:Landmark": "NR HILLFOOT PH CORNER OLD HILLFOOT ROAD", "naptan:NaptanCode": "merdtmgw", "naptan:Notes": "No Notes", "naptan:PlusbusZoneRef": "LVRPLCH", "naptan:ShortCommonName": "School Ln", "naptan:Street": "HILLFOOT ROAD", "naptan:verified": "no", "public_transport": "platform", "source": "naptan_import"}}, {"type": "node", "id": 533861702, "lat": 53.3590172, "lon": -2.8651467, "tags": {"bus": "yes", "highway": "bus_stop", "name": "SPEKE HALL ROAD/HILLFOOT AVE", "naptan:AtcoCode": "2800S48105A", "naptan:Bearing": "NW", "naptan:CommonName": "SPEKE HALL ROAD/HILLFOOT AVE", "naptan:Indicator": "SPEKE HALL ROAD/HILLFOOT AVENUE", "naptan:Landmark": "O/S ASDA SUPERMARKET", "naptan:NaptanCode": "merdtpdj", "naptan:Notes": "No Notes", "naptan:PlusbusZoneRef": "LVRPLCH", "naptan:ShortCommonName": "Hillfoot Av", "naptan:Street": "SPEKE HALL ROAD", "naptan:verified": "no", "public_transport": "platform", "source": "naptan_import"}}, {"type": "node", "id": 1528980856, "lat": 53.3581217, "lon": -2.8679287}, {"type": "node", "id": 1528980857, "lat": 53.3580466, "lon": -2.8678985}, {"type": "node", "id": 1529410430, "lat": 53.3561429, "lon": -2.8648619}, {"type": "node", "id": 1529410433, "lat": 53.3562223, "lon": -2.8648637}, {"type": "node", "id": 1529410443, "lat": 53.3560239, "lon": -2.864857}, {"type": "node", "id": 1529410459, "lat": 53.3562238, "lon": -2.8646834}, {"type": "node", "id": 1529410462, "lat": 53.35608, "lon": -2.8649428}, {"type": "node", "id": 1529410484, "lat": 53.3560807, "lon": -2.8648584}, {"type": "node", "id": 1529410498, "lat": 53.3560254, "lon": -2.8646787}, {"type": "node", "id": 2627566105, "lat": 53.357971, "lon": -2.8663607, "tags": {"amenity": "fast_food", "brand": "Subway", "brand:wikidata": "Q244457", "brand:wikipedia": "en:Subway (restaurant)", "contact:website": "https://restaurants.subway.com/united-kingdom/en/liverpool/9c-hunts-cross-shopping-centre-speke-hall-rd", "cuisine": "sandwich", "name": "Subway", "takeaway": "yes"}}, {"type": "node", "id": 2627566106, "lat": 53.3579371, "lon": -2.8663551, "tags": {"addr:country": "GB", "amenity": "fast_food", "brand": "Domino's", "brand:wikidata": "Q839466", "brand:wikipedia": "en:Domino's Pizza", "contact:website": "https://www.dominos.co.uk/pizza-near-me/liverpool/unit-9a-hunts-cross-shopping-centre", "cuisine": "pizza", "name": "Domino's", "takeaway": "yes"}}, {"type": "node", "id": 2627572985, "lat": 53.3577678, "lon": -2.8711146, "tags": {"branch": "Hunts Cross", "brand": "Matalan", "brand:wikidata": "Q12061509", "brand:wikipedia": "en:Matalan", "check_date": "2024-10-04", "check_date:opening_hours": "2024-09-23", "name": "Matalan", "opening_hours": "Mo-Fr 09:00-19:00; Sa 09:00-18:00; Su 10:00-16:00", "shop": "clothes", "website": "https://www.matalan.co.uk/store/liverpool/hunts-cross"}}, {"type": "node", "id": 2627585193, "lat": 53.358103, "lon": -2.8673535, "tags": {"amenity": "pharmacy", "brand": "Asda", "brand:wikidata": "Q297410", "brand:wikipedia": "en:Asda", "check_date": "2024-08-18", "check_date:opening_hours": "2024-08-18", "contact:phone": "+44 151 728 4610", "contact:website": "https://storelocator.asda.com/north-west/liverpool/hunts-cross-shopping-centre/pharmacy", "healthcare": "pharmacy", "name": "Asda", "opening_hours": "Mo-Sa 09:00-20:00; Su 10:00-16:00", "operator": "Asda Stores Ltd"}}, {"type": "node", "id": 3163903960, "lat": 53.3570872, "lon": -2.8675203}, {"type": "node", "id": 3320758881, "lat": 53.357981, "lon": -2.8678805}, {"type": "node", "id": 3320758883, "lat": 53.3580014, "lon": -2.8677387}, {"type": "node", "id": 3320758886, "lat": 53.3581409, "lon": -2.867795}, {"type": "node", "id": 3320758887, "lat": 53.3578839, "lon": -2.8690322}, {"type": "node", "id": 3320758890, "lat": 53.3569256, "lon": -2.8686461}, {"type": "node", "id": 7068002756, "lat": 53.3560804, "lon": -2.8648949}, {"type": "node", "id": 7068002757, "lat": 53.3561426, "lon": -2.8648966}, {"type": "way", "id": 139523331, "nodes": [33167270, 7068002757, 1529410430, 1529410433, 1529410459, 1529410498, 1529410443, 1529410484, 7068002756, 1529410462, 33167270], "tags": {"addr:housenumber": "1", "addr:postcode": "L24 9GQ", "addr:street": "Triumph Way", "alt_name": "Kentucky Fried Chicken", "amenity": "fast_food", "brand": "KFC", "brand:wikidata": "Q524757", "brand:wikipedia": "en:KFC", "building": "yes", "contact:website": "https://www.kfc.co.uk/kfc-near-me/liverpool-speke-hall-road", "cuisine": "chicken", "drive_through": "yes", "fhrs:id": "1094223", "name": "KFC", "takeaway": "yes"}}, {"type": "way", "id": 325413345, "nodes": [3320758890, 3163903960, 3320758881, 3320758883, 3320758886, 1528980856, 1528980857, 3320758887, 3320758890], "tags": {"addr:city": "Liverpool", "addr:country": "GB", "addr:housename": "Hunts Cross Shopping Park", "addr:postcode": "L24 9WA", "addr:street": "Speke Hall Road", "alt_name": "ASDA Hunts Cross Superstore", "brand": "Asda", "brand:wikidata": "Q297410", "brand:wikipedia": "en:Asda", "building": "yes", "check_date": "2024-08-18", "check_date:opening_hours": "2024-08-18", "contact:website": "https://storelocator.asda.com/north-west/liverpool/hunts-cross-shopping-centre", "fhrs:id": "497621", "name": "Asda", "opening_hours": "Mo 08:00-24:00; Tu-Fr 00:00-24:00; Sa 00:00-22:00; Su 10:00-16:00", "operator": "Asda Stores Ltd", "shop": "supermarket"}}]}