{"version": 0.6, "generator": "Overpass API 0.7.62.11 87bfad18", "osm3s": {"timestamp_osm_base": "2026-05-18T14:53:01Z", "copyright": "The data included in this document is from www.openstreetmap.org. The data is made available under ODbL."}, "elements": [{"type": "node", "id": 25325088, "lat": 53.3933188, "lon": -2.8868514, "tags": {"bus": "yes", "highway": "bus_stop", "name": "CHILDWALL PARK AVENUE/STAND PARK AVENUE", "naptan:AtcoCode": "2800S43085A", "naptan:Bearing": "NW", "naptan:CommonName": "CHILDWALL PARK AVENUE/STAND PARK AVENUE", "naptan:Indicator": "CHILDWALL PARK AVENUE/DUNBABIN ROAD", "naptan:Landmark": "SIDE OF 30 STAND PARK ROAD", "naptan:NaptanCode": "merdjtpj", "naptan:Notes": "No Notes", "naptan:PlusbusZoneRef": "LVRPLCH", "naptan:ShortCommonName": "Stand Park Ave", "naptan:Street": "CHILDWALL PARK AVENUE", "naptan:verified": "no", "public_transport": "platform", "source": "naptan_import"}}, {"type": "node", "id": 293643560, "lat": 53.394297, "lon": -2.8916538, "tags": {"addr:city": "Liverpool", "addr:housenumber": "2", "addr:postcode": "L16 0JN", "addr:street": "Childwall Abbey Road", "brand": "Morrisons Daily", "brand:wikidata": "Q99752411", "fhrs:id": "1521798", "name": "Morrisons Daily", "operator": "McColl's", "operator:wikidata": "Q16997477", "shop": "convenience", "website": "https://my.morrisons.com/storefinder/66001/morrisons-daily-liverpool-childwall-abbey-rd"}}, {"type": "node", "id": 293643839, "lat": 53.3943067, "lon": -2.8915658, "tags": {"addr:city": "Liverpool", "addr:housenumber": "4", "addr:postcode": "L16 0JN", "addr:street": "Childwall Abbey Road", "amenity": "fast_food", "cuisine": "chinese", "fixme": "is this now May's Thai Restaurant?", "name": "The Great Wall"}}, {"type": "node", "id": 293644350, "lat": 53.3943353, "lon": -2.8911857, "tags": {"addr:city": "Liverpool", "addr:street": "Childwall Abbey Road", "amenity": "pharmacy", "brand": "Boots", "brand:wikidata": "Q6123139", "brand:wikipedia": "en:Boots (company)", "healthcare": "pharmacy", "name": "Boots"}}, {"type": "node", "id": 293645105, "lat": 53.3943509, "lon": -2.8909749, "tags": {"addr:city": "Liverpool", "addr:street": "Childwall Abbey Road", "name": "Sellect", "office": "estate_agent"}}, {"type": "node", "id": 293645453, "lat": 53.3943737, "lon": -2.8907258, "tags": {"addr:city": "Liverpool", "addr:housenumber": "26-28", "addr:postcode": "L16 0JN", "addr:street": "Childwall Abbey Road", "alcohol": "yes", "fhrs:id": "683888", "name": "Ideal Choices", "shop": "convenience"}}, {"type": "node", "id": 293645667, "lat": 53.3943846, "lon": -2.890568, "tags": {"addr:city": "Liverpool", "addr:housenumber": "34", "addr:postcode": "L16 0JN", "addr:street": "Childwall Abbey Road", "amenity": "fast_food", "cuisine": "english;chinese;greek", "fhrs:id": "1681382", "name": "The Abbey Friar"}}, {"type": "node", "id": 293650824, "lat": 53.39482, "lon": -2.8921031, "tags": {"name": "Dechalma Lingerie", "shop": "clothes"}}, {"type": "node", "id": 293650857, "lat": 53.3946882, "lon": -2.8921202, "tags": {"name": "Classy Rags", "shop": "clothes"}}, {"type": "node", "id": 293652743, "lat": 53.3944361, "lon": -2.8924893, "tags": {"name": "Ashley Formal Menswear", "shop": "clothes"}}, {"type": "node", "id": 533857649, "lat": 53.3941194, "lon": -2.8920707, "tags": {"bus": "yes", "highway": "bus_stop", "name": "TAGGART AVE/CHILDWALL ABBEY RD", "naptan:AtcoCode": "2800S43041A", "naptan:Bearing": "N", "naptan:CommonName": "TAGGART AVE/CHILDWALL ABBEY RD", "naptan:Indicator": "TAGGART AVENUE/DUNBABIN ROAD", "naptan:Landmark": "O/S ELECTRICITY SUB STATION", "naptan:NaptanCode": "merdjmpm", "naptan:Notes": "No Notes", "naptan:PlusbusZoneRef": "LVRPLCH", "naptan:ShortCommonName": "Childwall Abbey Rd", "naptan:Street": "TAGGART AVENUE", "naptan:verified": "no", "public_transport": "platform", "source": "naptan_import"}}, {"type": "node", "id": 533857651, "lat": 53.3947069, "lon": -2.8904438, "tags": {"bus": "yes", "highway": "bus_stop", "name": "CHILDWALL PRIORY RD/TAGGART AVE", "naptan:AtcoCode": "2800S43041B", "naptan:Bearing": "SE", "naptan:CommonName": "CHILDWALL PRIORY RD/TAGGART AVE", "naptan:Indicator": "CHILDWALL PRIORY ROAD/CHILDWALL ABBEY ROAD", "naptan:Landmark": "O/S 89", "naptan:NaptanCode": "merdjmpt", "naptan:Notes": "No Notes", "naptan:PlusbusZoneRef": "LVRPLCH", "naptan:ShortCommonName": "Childwall Priory Rd", "naptan:Street": "CHILDWALL PRIORY ROAD", "naptan:verified": "no", "public_transport": "platform", "source": "naptan_import"}}, {"type": "node", "id": 533857652, "lat": 53.3944034, "lon": -2.8913548, "tags": {"bus": "yes", "highway": "bus_stop", "name": "CHILDWALL ABBEY RD/TAGGART AVE", "naptan:AtcoCode": "2800S43041D", "naptan:Bearing": "W", "naptan:CommonName": "CHILDWALL ABBEY RD/TAGGART AVE", "naptan:Indicator": "CHILDWALL ABBEY ROAD/TAGGART AVENUE", "naptan:Landmark": "O/S SHOP 10", "naptan:NaptanCode": "merdjmpw", "naptan:Notes": "No Notes", "naptan:PlusbusZoneRef": "LVRPLCH", "naptan:ShortCommonName": "Childwall Ab/Tagart", "naptan:Street": "CHILDWALL ABBEY ROAD", "naptan:verified": "no", "public_transport": "platform", "source": "naptan_import"}}, {"type": "node", "id": 533857654, "lat": 53.3918215, "lon": -2.8928347, "tags": {"bus": "yes", "highway": "bus_stop", "name": "TAGGART AVE/IRENE RD", "naptan:AtcoCode": "2800S43042A", "naptan:Bearing": "S", "naptan:CommonName": "TAGGART AVE/IRENE RD", "naptan:Indicator": "TAGGART AVENUE/WOOLTON ROAD", "naptan:Landmark": "OPP 91 O/S ST KATHARINE'S COLLEGE", "naptan:NaptanCode": "merdjmta", "naptan:Notes": "No Notes", "naptan:PlusbusZoneRef": "LVRPLCH", "naptan:ShortCommonName": "Taggart Av/Irene Rd", "naptan:Street": "TAGGART AVENUE", "naptan:verified": "no", "public_transport": "platform", "source": "naptan_import"}}, {"type": "node", "id": 533860334, "lat": 53.3935714, "lon": -2.8872019, "tags": {"bus": "yes", "highway": "bus_stop", "name": "CHILDWALL PARK AVE/DUNBABIN ROAD", "naptan:AtcoCode": "2800S43085B", "naptan:Bearing": "SE", "naptan:CommonName": "CHILDWALL PARK AVE/DUNBABIN ROAD", "naptan:Indicator": "CHILDWALL PARK AVENUE/DUNBABIN ROAD", "naptan:Landmark": "OPP STAND PARK AVENUE O/S 31/33", "naptan:NaptanCode": "merdjtpm", "naptan:Notes": "No Notes", "naptan:PlusbusZoneRef": "LVRPLCH", "naptan:ShortCommonName": "Childwall Park Av", "naptan:Street": "CHILDWALL PARK AVENUE", "naptan:verified": "no", "public_transport": "platform", "source": "naptan_import"}}, {"type": "node", "id": 533860336, "lat": 53.3919591, "lon": -2.8852413, "tags": {"bus": "yes", "highway": "bus_stop", "name": "CHILDWALL PARK AVENUE/COUNTISBURY DRIVE", "naptan:AtcoCode": "2800S43086A", "naptan:Bearing": "NW", "naptan:CommonName": "CHILDWALL PARK AVENUE/COUNTISBURY DRIVE", "naptan:Indicator": "CHILDWALL PARK AVENUE/WOOLTON ROAD", "naptan:Landmark": "CORNER COUNTISBURY DRIVE O/S 67", "naptan:NaptanCode": "merdjtpt", "naptan:Notes": "No Notes", "naptan:PlusbusZoneRef": "LVRPLCH", "naptan:ShortCommonName": "Countisbury Dr", "naptan:Street": "CHILDWALL PARK AVENUE", "naptan:verified": "no", "public_transport": "platform", "source": "naptan_import"}}]}